ride_id,rideable_type,started_at,ended_at,start_station_name,start_station_id,end_station_name,end_station_id,start_lat,start_lng,end_lat,end_lng,member_casual
E3C04F81C50F3C24,classic_bike,2022-01-21 21:03:26,2022-01-21 21:13:42,E 31 St & 3 Ave,6239.08,E 44 St & 2 Ave,6422.09,40.74394314,-73.97966069,40.75118387463277,-73.97138714790344,member
EFB776DABA0E9322,classic_bike,2022-12-31 10:13:35,2022-12-31 10:22:08,21 St & Hoyt Ave S,7126.01,38 St & 30 Ave,6850.01,40.774745941,-73.923606038,40.764174520197685,-73.91583994030952,member
A64AF2D82AAA57B1,classic_bike,2022-09-03 14:35:46,2022-09-03 14:52:10,Emerson Pl & Myrtle Ave,4683.02,Bergen St & Flatbush Ave,4281.08,40.69363137,-73.96223558,40.680944723477296,-73.97567331790923,casual
30060D0E4EE712F7,classic_bike,2022-06-02 15:39:52,2022-06-02 16:05:48,Lexington Ave & E 24 St,6089.07,1 Ave & E 68 St,6822.09,40.74025878,-73.98409214,40.76500525,-73.95818491,member
88ADBE18E6AE3AF9,classic_bike,2022-08-18 21:42:35,2022-08-18 22:05:34,Nevins St & Schermerhorn St,4437.09,Nevins St & Schermerhorn St,4437.09,40.687535644,-73.982006907,40.68737247650719,-73.98176059126854,casual
31201B2CEB42575A,classic_bike,2022-08-11 22:27:10,2022-08-11 23:17:19,12 Ave & W 125 St,7886.02,St. Nicholas Ave & W 126 St,7756.1,40.818299,-73.960405,40.8114323,-73.9518776,member
912F124A36E9FCB8,classic_bike,2022-11-23 09:53:08,2022-11-23 09:59:47,W 56 St & 10 Ave,6955.01,W 37 St & 10 Ave,6611.02,40.768350244,-73.988802075,40.75660359,-73.9979009,member
7CEC41FB8FB06672,classic_bike,2022-09-22 16:40:53,2022-09-22 16:45:13,E 41 St & Madison Ave (SW corner),6474.12,6 Ave & W 34 St,6364.10,40.752165280621966,-73.97992193698882,40.74964,-73.98805,member
F83CE27660ED70D8,classic_bike,2022-12-25 10:27:45,2022-12-25 10:34:38,Union Ave & E 169 St,8064.03,Melrose Ave & E 150 St,7879.01,40.829926252,-73.898837566,40.816827,-73.917338,casual
9FC937FEA10DEF96,classic_bike,2022-05-11 17:43:41,2022-05-11 17:56:44,W 37 St & 5 Ave,6398.06,W 12 St & Hudson St,5997.1,40.75038009,-73.98338988,40.73752993301071,-74.00558933615685,member
CB16FD2976BA932F,classic_bike,2022-10-13 18:20:17,2022-10-13 18:20:33,1 Ave & E 78 St,7020.09,1 Ave & E 78 St,7020.09,40.77140426,-73.9535166,40.77140426,-73.9535166,member
35B49FE93B57CFFC,classic_bike,2022-07-28 21:41:30,2022-07-28 21:51:14,Stanton St & Chrystie St,5523.02,E 23 St & 1 Ave,5929.01,40.72229346,-73.99147535,40.736502,-73.97809472,member
6E66213A31AA6F0E,classic_bike,2022-06-15 18:51:22,2022-06-15 18:53:44,2 Ave & E 55 St,6650.08,E 55 St & 2 Ave,6650.07,40.757920208794026,-73.96638214588165,40.75797322,-73.96603308,member
3101F76E6DC7CAAE,classic_bike,2022-07-02 12:12:50,2022-07-02 12:13:36,Carmine St & 6 Ave,5763.03,Carmine St & 6 Ave,5763.03,40.73038599,-74.00214988,40.73038599,-74.00214988,member
92665F8B69205B57,classic_bike,2022-12-21 15:37:06,2022-12-21 15:42:39,E 3 St & 1 Ave,5553.03,Allen St & Hester St,5342.10,40.724855185,-73.988127232,40.71605866,-73.99190759,member
6891A98A20C8E74D,classic_bike,2022-06-16 10:59:12,2022-06-16 11:06:53,38 St & Northern Blvd,6486.07,31 St & Thomson Ave,6227.02,40.752372,-73.925384,40.74469738,-73.93540375,member
00A918A50ECE2FE5,classic_bike,2022-07-28 18:29:24,2022-07-28 18:43:27,Clinton St & Grand St,5303.06,E 9 St & 5 Ave,5872.10,40.71559509,-73.9870295,40.73275887045087,-73.99581670761108,member
AF575363A2EE11CC,classic_bike,2022-06-29 20:42:10,2022-06-29 20:56:16,Broadway & W 25 St,6173.08,Broadway & E 19 St,6098.12,40.74286877312112,-73.98918628692627,40.73866091428551,-73.98987293243407,casual
639AE77F1E1DF3C5,classic_bike,2022-05-10 15:55:24,2022-05-10 16:00:14,Forsyth St & Broome St,5453.05,Grand St & Elizabeth St,5382.06,40.71893904,-73.99266288,40.718822,-73.99596,member
1A6233C9816D1A6B,classic_bike,2022-09-19 18:12:11,2022-09-19 18:42:00,W 54 St & 11 Ave,6955.05,E 6 St & 2 Ave,5669.12,40.768333,-73.992573,40.72737869323223,-73.98840844631195,member
54851D8B756F9188,classic_bike,2022-08-24 19:06:52,2022-08-24 19:07:43,E 16 St & Irving Pl,5938.11,E 15 St & 3 Ave,5863.07,40.735367055605394,-73.98797392845154,40.734232,-73.986923,member
599465E96677DC28,classic_bike,2022-08-04 23:07:18,2022-08-04 23:31:49,Washington St & Gansevoort St,6039.06,West End Ave & W 60 St,7059.08,40.739323,-74.008119,40.77237,-73.99005,casual
30FE44ACF4A8C2AB,classic_bike,2022-09-20 16:36:20,2022-09-20 17:14:58,Grand Concourse & E 164 St,8057.02,Grand Concourse & E 156 St,7984.04,40.829506993,-73.921537161,40.823429,-73.924689,member
26492AB389A974D5,classic_bike,2022-01-25 12:52:26,2022-01-25 13:00:08,University Pl & E 14 St,5905.14,E 4 St & Ave B,5515.08,40.734814,-73.992085,40.72334683218016,-73.98265913128853,member
09CFB2DA17FE776D,classic_bike,2022-12-05 19:05:26,2022-12-05 19:23:49,Centre St & Worth St,5279.03,W 15 St & 6 Ave,5989.02,40.71494807,-74.00234482,40.738046142482766,-73.99642959237099,member
08CC5DA44901FACD,classic_bike,2022-07-16 10:43:39,2022-07-16 10:49:25,1 Pl & Clinton St,4193.14,Schermerhorn St & Bond St,4479.08,40.680962086,-73.999311686,40.688417427540834,-73.98451656103134,member
9719AD31BDFBB7AB,electric_bike,2022-09-02 21:08:57,2022-09-02 21:30:30,E 97 St & Madison Ave,7393.09,W 42 St & Dyer Ave,6644.07,40.787801,-73.953559,40.75898481399634,-73.99379968643188,member
9ABAFD4AE3A8546E,electric_bike,2022-11-18 14:10:19,2022-11-18 14:10:57,Madison Ave & E 99 St,7443.01,Madison Ave & E 99 St,7443.01,40.78948541553215,-73.95242929458618,40.78948541553215,-73.95242929458618,member
5EC6CBABAF772023,classic_bike,2022-07-10 14:04:54,2022-07-10 14:18:18,Amsterdam Ave & W 79 St,7311.02,W 110 St & Amsterdam Ave,7646.04,40.7829391,-73.9786517,40.802692,-73.96295,casual
1ECC9AAA4E5B2B17,classic_bike,2022-10-17 16:39:18,2022-10-17 16:46:46,W 26 St & 10 Ave,6382.05,8 Ave & W 38 St,6526.05,40.749717753,-74.002950346,40.75461,-73.99177,member
8E7E10EA2D817095,classic_bike,2022-09-14 09:41:38,2022-09-14 09:49:23,MacDougal St & Washington Sq,5797.01,8 Ave & W 16 St,6072.11,40.73226398,-73.99852205,40.740983,-74.001702,member
B64B52892C4895DC,electric_bike,2022-01-28 22:06:10,2022-01-28 22:10:32,2 Ave & E 29 St,6122.09,E 30 St & Park Ave S,6206.08,40.74172351097472,-73.97809267044067,40.74444921,-73.98303529,member
C7F527DDF47EC509,classic_bike,2022-06-28 18:57:02,2022-06-28 19:20:00,Kingsland Ave & Nassau Ave,5613.04,Allen St & Stanton St,5484.09,40.725700021,-73.941727161,40.722055,-73.989111,member
625E5603036729FD,electric_bike,2022-01-31 16:49:03,2022-01-31 16:56:38,Broadway & E 21 St,6098.10,E 40 St & Park Ave,6432.11,40.73988840858996,-73.98958593606949,40.750756,-73.978326,member
4561E8D16D8FB4BF,classic_bike,2022-06-14 20:34:02,2022-06-14 20:55:27,W 42 St & 6 Ave,6517.08,Washington St & Barrow St,5847.08,40.75492,-73.98455,40.73191132323174,-74.008769094944,member
DB91502530FA9714,classic_bike,2022-05-13 13:19:47,2022-05-13 13:34:55,W 22 St & 8 Ave,6224.03,W 22 St & 8 Ave,6224.03,40.74475148,-73.99915362,40.74475148,-73.99915362,casual
4B394088BA29AB6F,classic_bike,2022-12-10 20:01:23,2022-12-10 20:04:15,Driggs Ave & N Henry St,5542.04,Driggs Ave & Lorimer St,5481.04,40.72325,-73.94308,40.72179134,-73.9504154,member
2075B749A086C14B,electric_bike,2022-12-26 23:09:07,2022-12-26 23:14:26,W 113 St & Broadway,7713.01,W 106 St & Central Park West,7606.01,40.805973,-73.964928,40.7981856,-73.9605909006,casual
91ED38CD9EF700A4,classic_bike,2022-09-17 20:18:49,2022-09-17 20:27:56,E 43 St & 2 Ave,6422.08,E 15 St & 3 Ave,5863.07,40.75022392,-73.97121414,40.734232,-73.986923,member
C6C605A109BD84F2,classic_bike,2022-09-20 15:29:41,2022-09-20 15:48:07,South St & Pike St,5159.07,Vesey Pl & River Terrace,5297.02,40.70991806921533,-73.99161100387573,40.7153379,-74.01658354,member
F9F4DC1D422C6583,electric_bike,2022-08-30 20:40:18,2022-08-30 20:48:10,Pacific St & Classon Ave,4148.07,Willoughby Ave & Hall St,4611.03,40.6791944,-73.9587903,40.69196035,-73.96536851,member
A648505DA28D1DDA,classic_bike,2022-10-15 18:27:26,2022-10-15 18:50:08,Forsyth St\t& Grand St,5382.07,S 4 St & Wythe Ave,5204.05,40.71779817737835,-73.99316132068634,40.71285887,-73.96590294,member
5A53D0538C2A5426,electric_bike,2022-07-15 14:45:45,2022-07-15 14:54:30,Broadway & W 25 St,6173.08,W 41 St & 8 Ave,6602.03,40.74286877312112,-73.98918628692627,40.75640548,-73.9900262,member
C06F2E59892DD448,electric_bike,2022-03-06 01:30:03,2022-03-06 01:42:03,Broadway\t& W 48 St,6708.04,E 75 St & 3 Ave,6991.12,40.76017739537783,-73.98486793041229,40.77112927,-73.95772297,member
07AE284A0A7A436D,classic_bike,2022-08-03 18:38:38,2022-08-03 18:50:50,E 48 St & 3 Ave,6541.03,2 Ave & E 72 St,6925.09,40.7546011026,-73.971878855,40.7687620293096,-73.95840793848038,member
EBC807880897F59B,electric_bike,2022-03-18 13:25:02,2022-03-18 13:34:54,Cleveland Pl & Spring St,5492.05,Stanton St & Norfolk St,5445.07,40.722103786686034,-73.99724900722504,40.720747,-73.986274,member
6956A6BB145C2695,classic_bike,2022-11-16 18:59:31,2022-11-16 19:12:02,E 7 St & Avenue A,5626.07,Sullivan St & Washington Sq,5721.01,40.72621788,-73.98379855,40.73047747,-73.99906065,casual
32E1F63BF159CA9E,classic_bike,2022-01-07 09:08:35,2022-01-07 09:38:22,1 Ave & E 30 St,6079.03,Broad St & Bridge St,4962.08,40.74144387,-73.97536082,40.70365182,-74.01167797,member
3789C6A535EF38C2,classic_bike,2022-08-25 19:51:33,2022-08-25 19:55:33,Convent Ave & W 135 St,7860.08,St Nicholas Ave & W 137 St,7898.03,40.818215,-73.950988,40.818477,-73.947568,member
05513625517D0072,electric_bike,2022-01-26 16:01:08,2022-01-26 16:03:48,West End Ave & W 78 St,7340.07,Riverside Dr & W 72 St,7288.04,40.783786,-73.981687,40.78057799010334,-73.98562431335449,member
720104BCC8083DAC,classic_bike,2022-05-09 13:21:11,2022-05-09 13:57:15,University Pl & E 14 St,5905.14,Kingston Ave & Herkimer St,4205.06,40.734814,-73.992085,40.67890679,-73.94142771,member
99A1B438E67F5EE0,electric_bike,2022-06-16 14:18:31,2022-06-16 14:26:37,Cleveland Pl & Spring St,5492.05,E 11 St & 3 Ave,5788.16,40.722103786686034,-73.99724900722504,40.73127,-73.98849,member
C5D712D329E8BB41,classic_bike,2022-08-06 12:34:50,2022-08-06 12:34:58,E 25 St & 2 Ave,6046.02,E 25 St & 2 Ave,6046.02,40.73912601,-73.97973776,40.73912601,-73.97973776,member
EA51A9380BC144C0,classic_bike,2022-07-10 21:37:20,2022-07-10 22:17:20,Hudson St & Reade St,5359.1,E 11 St & Avenue B,5659.11,40.71625008,-74.0091059,40.72746420692392,-73.97950418293476,member
207AC3B9150BA7AF,classic_bike,2022-05-10 16:55:28,2022-05-10 17:03:05,W 35 St & 9 Ave,6569.09,E 41 St & Madison Ave (SE corner),6432.1,40.75414519263519,-73.9960889518261,40.752049,-73.979635,member
902995F11A9E6E01,classic_bike,2022-11-10 08:17:08,2022-11-10 08:39:01,Halsey St & Tompkins Ave,4319.07,Milton St & Franklin St,5752.07,40.682387471,-73.944061399,40.72906,-73.95779,member
F69172EF5AD2D5F4,classic_bike,2022-12-09 16:24:35,2022-12-09 16:29:53,Clark St & Henry St,4789.03,Front St & Jay St,4895.03,40.697703838,-73.993249059,40.702461,-73.986842,member
4B96371ACB909F18,classic_bike,2022-05-09 07:41:21,2022-05-09 07:49:52,S Portland Ave & Hanson Pl,4354.05,Sands St Gate,4812.04,40.68539567,-73.97431458,40.699569,-73.979827,member
A632040D6FC84C81,classic_bike,2022-07-26 11:05:06,2022-07-26 11:11:05,Alexander Ave & E 134 St,7712.04,Bergen Ave & E 152 St,7858.02,40.807451606,-73.927220225,40.817166,-73.914737,member
66DF2004B5A1C65C,classic_bike,2022-01-01 13:31:48,2022-01-01 13:43:55,Grand St & Elizabeth St,5382.06,E 6 St & Avenue D,5506.14,40.718822,-73.99596,40.72228087,-73.97668709,member
4348B11F479ADA7A,classic_bike,2022-11-04 16:12:29,2022-11-04 16:35:35,E 138 St & Cypress Ave,7669.1,E 102 St & 1 Ave,7407.13,40.805514097,-73.914833784,40.7869946,-73.94164802,casual
23716C18C4301CE1,classic_bike,2022-01-22 14:47:37,2022-01-22 14:52:05,E 17 St & Broadway,5980.07,W 18 St & 6 Ave,6064.08,40.73704984,-73.99009296,40.73971301,-73.99456405,member
A02F5E6E349B954D,classic_bike,2022-11-18 07:12:55,2022-11-18 07:20:02,Emerson Pl & Myrtle Ave,4683.02,5 St & Market St,4843.01,40.69363137,-73.96223558,40.6999974843885,-73.97440128028393,member
920AFDAA084074F9,classic_bike,2022-11-25 14:25:04,2022-11-25 14:37:21,36 Ave & 10 St,6737.03,44 St & 48 Ave,6058.08,40.761406779,-73.940968156,40.73941387498411,-73.92131969332695,member
DA052FB3AAA718DB,classic_bike,2022-05-12 07:48:05,2022-05-12 08:01:32,E 84 St & 1 Ave,7180.02,E 47 St & Park Ave,6584.12,40.77565541,-73.95068615,40.75510267,-73.97498696,member
B80BA7697BC3D304,classic_bike,2022-08-14 18:18:05,2022-08-15 19:17:59,6 Ave & Broome St,5610.09,,,40.72431,-74.00473,,,casual
97415BA89FD172C8,classic_bike,2022-11-26 14:53:31,2022-11-26 15:30:06,Jay St & Tech Pl,4710.06,Manhattan Av & Leonard St,5442.09,40.695070624,-73.987016797,40.72084,-73.94844,casual
0E1B5F52349F1842,classic_bike,2022-11-27 00:05:15,2022-11-27 00:07:01,8 Ave & W 31 St,6450.05,W 35 St & 8 Ave,6526.01,40.7505853470215,-73.9946848154068,40.752762088742045,-73.99280458705107,member
0A0F0FAB4C67BC1C,classic_bike,2022-10-11 16:59:12,2022-10-11 17:04:46,George St & Wilson Ave,4906.07,Morgan Ave & Maspeth Ave,5354.01,40.702997,-73.92997,40.716657,-73.93637,casual
CD469876F476DEFE,classic_bike,2022-03-07 18:21:24,2022-03-07 18:36:19,E 44 St & 2 Ave,6422.09,E 10 St & 2 Ave,5746.02,40.75118387463277,-73.97138714790344,40.72970805644994,-73.9865979552269,member
703E2EAB54AEF8AD,classic_bike,2022-01-25 07:25:10,2022-01-25 07:36:19,W 20 St & 7 Ave,6182.02,9 Ave & W 45 St,6717.06,40.74238787,-73.99726235,40.76019252,-73.9912551,member
7CA7FAA69DE41F36,classic_bike,2022-12-20 18:51:25,2022-12-20 19:01:48,8 Ave & W 27 St,6297.07,W 42 St & 8 Ave,6602.05,40.747968,-73.996637,40.7575699,-73.99098507,casual
9DE2B5FC99A3EA20,classic_bike,2022-11-11 11:59:51,2022-11-11 12:07:46,W 37 St & 10 Ave,6611.02,W 26 St & 8 Ave,6297.02,40.75660359,-73.9979009,40.74734825,-73.99723551,member
ED3509A42658580F,classic_bike,2022-12-20 15:42:11,2022-12-20 15:51:46,W 54 St & 9 Ave,6920.03,W 51 St & Rockefeller Plaza,6700.14,40.76584941,-73.98690506,40.75973805251143,-73.97811613976955,casual
0E46E58A6FE03995,classic_bike,2022-11-02 09:05:48,2022-11-02 09:15:28,7 Ave & Central Park South,6912.01,5 Ave & E 103 St,7511.19,40.766511559,-73.979096055,40.7922553,-73.95249933,member
12AC8B067E29DC3D,classic_bike,2022-05-12 08:58:43,2022-05-12 09:08:16,E 40 St & 5 Ave,6474.11,Broadway & W 53 St,6779.05,40.752062307,-73.9816324043,40.76344058,-73.98268129,member
B5211DA9FA75D36C,classic_bike,2022-10-11 07:03:58,2022-10-11 07:11:04,40 Ave & 9 St,6664.05,28 St & 41 Ave,6462.19,40.757472515,-73.945244074,40.751047,-73.93797,member
CED2348608D017DF,classic_bike,2022-06-15 20:36:45,2022-06-15 20:44:03,2 Ave & E 122 St,7622.12,1 Ave & E 110 St,7522.02,40.8006721,-73.9349,40.7923272,-73.9383,member
154D1AAA3F135D8C,electric_bike,2022-03-27 23:28:43,2022-03-27 23:38:28,LaGuardia Pl & W 3 St,5721.14,E 13 St & Avenue A,5779.09,40.72917025,-73.99810231,40.72966729392978,-73.98067966103554,member
AFCB41A887A5F342,classic_bike,2022-08-27 19:14:54,2022-08-27 19:43:16,Bushwick Ave & Powers St,5250.05,Flatbush Ave & Eastern Pkwy,3856.03,40.712504268,-73.941055894,40.668757,-73.966438,member
7E52F2AB0626433C,electric_bike,2022-03-26 23:10:13,2022-03-26 23:29:44,E 22 St & 2 Ave,5971.09,Central Park S & 6 Ave,6876.04,40.73716919369882,-73.98122549057007,40.76590936,-73.97634151,casual
8FC872AA3402E237,classic_bike,2022-12-20 16:24:58,2022-12-20 16:34:07,W 135 St & Lenox Terrace Pl,7832.04,Mt Morris Park W & W 120 St,7685.14,40.813619852,-73.939264297,40.804038,-73.945925,member
E0B833D034702865,electric_bike,2022-03-23 17:33:26,2022-03-23 17:38:34,E 51 St & 1 Ave,6532.06,E 47 St & Park Ave,6584.12,40.75455731,-73.96592976,40.75510267,-73.97498696,member
011B76F78BAF4CC3,classic_bike,2022-08-21 01:53:19,2022-08-21 02:03:54,Grand Concourse & E 144 St,7845.06,Concourse Village West & E 156 St,7962.01,40.816576,-73.927987,40.823162,-73.923267,casual
1F928F67926B4066,classic_bike,2022-11-29 17:46:22,2022-11-29 17:51:39,11 Ave & W 41 St,6726.01,W 26 St & 8 Ave,6297.02,40.760310888,-73.998757482,40.74734825,-73.99723551,member
C9422E3680769CC6,classic_bike,2022-12-21 21:15:31,2022-12-21 21:19:11,E 1 St & 1 Ave,5593.01,E 7 St & Ave C,5545.01,40.72333169,-73.988691568,40.72412944090093,-73.97901266813278,member
07EBAC974D135A9F,classic_bike,2022-10-27 01:19:07,2022-10-27 01:41:03,Albemarle Rd & McDonald Ave,3166.03,Pacific St & Nevins St,4362.04,40.645106792,-73.979721904,40.6853761,-73.98302136,member
38E2376054F1B14A,classic_bike,2022-12-15 17:25:48,2022-12-15 17:33:07,W 37 St & 10 Ave,6611.02,W 56 St & 10 Ave,6955.01,40.756556153,-73.998428226,40.768254,-73.988639,member
08A922D2FFFC80C9,electric_bike,2022-01-23 22:29:51,2022-01-23 22:46:43,Bank St & Washington St,5964.01,W 64 St & Thelonious Monk Circle,7123.04,40.7361967,-74.00859207,40.77515953434235,-73.98918695747852,casual
ABFB371E1F8050FA,electric_bike,2022-05-06 20:34:01,2022-05-06 20:42:02,Lexington Ave & Classon Ave,4452.03,7 Ave & Park Pl,4125.07,40.68676793,-73.95928168,40.6776147,-73.97324283,member
68544FC303C00CF7,docked_bike,2022-10-30 08:06:15,2022-10-30 08:29:26,7 Ave & Central Park South,6912.01,5 Ave & E 87 St,7323.09,40.766741,-73.979069,40.782323,-73.959875,casual
861709E5F93D6C5F,classic_bike,2022-06-28 20:57:53,2022-06-28 21:47:24,Brook Ave & E 148 St,7816.14,Grand Concourse & E 156 St,7984.04,40.814383,-73.915368,40.823429,-73.924689,casual
067A5BF01651B15C,classic_bike,2022-08-12 17:40:43,2022-08-12 17:49:14,24 St & 38 Ave,6581.14,21 St & Hoyt Ave S,7126.01,40.756359816,-73.936547279,40.774645,-73.923706,member
F0A938F1EEB438B3,electric_bike,2022-12-15 07:29:19,2022-12-15 07:35:29,E 22 St & 2 Ave,5971.09,E 9 St & 5 Ave,5872.10,40.73716919369882,-73.98122549057007,40.73275887045087,-73.99581670761108,member
FD7278D51051DFD5,classic_bike,2022-05-25 09:55:48,2022-05-25 10:09:24,E 9 St & Avenue C,5616.01,Lafayette St & E 8 St,5788.13,40.72521311,-73.97768752,40.73020660529954,-73.99102628231049,casual
76F036D0C840A535,classic_bike,2022-06-11 12:52:22,2022-06-11 13:14:11,W 16 St & The High Line,6233.05,Allen St & Hester St,5342.10,40.74334935,-74.00681753,40.71605866,-73.99190759,member
F567F8782CE65531,electric_bike,2022-05-03 18:53:58,2022-05-03 19:04:14,S 5 Pl & S 5 St,5125.03,DeKalb Ave & Franklin Ave,4528.01,40.710451,-73.960876,40.69064807082943,-73.95746178925037,member
FDAF3E5E0C8D475A,classic_bike,2022-05-24 07:52:09,2022-05-24 07:54:44,E 22 St & 2 Ave,5971.09,E 20 St & FDR Dr,5886.13,40.73716919369882,-73.98122549057007,40.733208626522426,-73.9756813647,member
B38829708639B1FD,classic_bike,2022-06-14 09:21:12,2022-06-14 09:26:34,E 89 St & 3 Ave,7265.10,E 102 St & Park Ave,7488.24,40.7806284,-73.9521667,40.7904828,-73.95033068,member
91A8A7F311130EFA,classic_bike,2022-08-19 15:44:20,2022-08-19 15:48:47,Flatbush Ave & Ocean Ave,3704.04,Grand Army Plaza & Plaza St West,4010.15,40.663589478,-73.962960839,40.6729679,-73.97087984,member
56DDC1525070EAA7,electric_bike,2022-05-26 11:54:35,2022-05-26 12:29:32,Sullivan Pl & Franklin Ave,3704.08,Flatbush Ave & Ocean Ave,3704.04,40.66407983678161,-73.96025128666679,40.663657,-73.963014,member
94B192EE3C58AEA4,classic_bike,2022-11-16 08:46:26,2022-11-16 09:00:10,W 116 St & Amsterdam Ave,7692.11,E 116 St & 2 Ave,7563.06,40.806395292,-73.96066916,40.796879,-73.937261,member
BA0D10F1605C307F,classic_bike,2022-09-23 22:20:23,2022-09-23 22:22:58,University Pl & E 8 St,5755.14,University Pl & E 14 St,5905.14,40.73143724085228,-73.99490341544151,40.734814,-73.992085,member
C1807AB30DA82470,electric_bike,2022-10-24 16:30:21,2022-10-24 16:34:06,Prospect Pl & 6 Ave,4166.08,Lafayette Ave & Ft Greene Pl,4470.09,40.6793307,-73.97519523,40.68700231292619,-73.97664964199066,member
2243846FECCFD93E,classic_bike,2022-09-30 11:45:01,2022-09-30 11:50:30,Monroe St & Bedford Ave,4368.05,Pacific St & Classon Ave,4148.07,40.6851443,-73.95380904,40.6791944,-73.9587903,member
F55F5B5801D33698,classic_bike,2022-03-11 17:14:58,2022-03-11 17:24:13,5 Ave & E 63 St,6904.06,1 Ave & E 62 St,6753.08,40.766368,-73.971518,40.7612274,-73.96094022,member
7AEAA00448A7D94D,classic_bike,2022-09-18 02:58:45,2022-09-18 03:06:09,Leonard St & Maujer St,5148.03,Stagg St & Morgan Ave,5170.01,40.7103685423523,-73.94705951213837,40.710681,-73.93372,casual
504167EE9DF47E92,classic_bike,2022-09-10 18:38:55,2022-09-10 19:09:30,Columbia St & Kane St,4422.05,Old Fulton St,4903.08,40.68763155,-74.0016256,40.70277159,-73.99383605,member
95BFE8197E8E2357,classic_bike,2022-05-29 18:19:27,2022-05-29 19:06:01,Amsterdam Ave & W 125 St,7800.03,Greenwich St & Rector St,5073.07,40.813358,-73.956461,40.70806582380646,-74.0135595202446,casual
28F9AEBA4CD9EBC8,classic_bike,2022-01-04 06:12:28,2022-01-04 06:17:49,W 41 St & 8 Ave,6602.03,Broadway & W 36 St,6441.01,40.75640548,-73.9900262,40.75097711,-73.98765428,member
5C2A3125690994A7,classic_bike,2022-03-15 07:21:05,2022-03-15 07:35:44,Sterling Pl & Bedford Ave,3993.03,7 St & 3 Ave,3996.01,40.672695,-73.954131,40.67260298150126,-73.98983001708984,member
4650E952AABB135E,classic_bike,2022-05-03 07:22:08,2022-05-03 07:27:04,E 81 St & 3 Ave,7154.07,5 Ave & E 72 St,7100.07,40.77573034,-73.9567526,40.77282817,-73.96685276,member
2311B627847EA2BA,classic_bike,2022-10-21 08:55:18,2022-10-21 08:59:27,Milton St & Franklin St,5752.07,Kent Ave & N 7 St,5489.03,40.72906,-73.95779,40.72036775298455,-73.96165072917938,member
301C91BE0E93655F,classic_bike,2022-08-26 08:08:32,2022-08-26 08:20:00,Greenwich Ave & Charles St,5914.08,Cleveland Pl & Spring St,5492.05,40.735238,-74.000271,40.722103786686034,-73.99724900722504,member
101EC8738E1C6D7E,electric_bike,2022-05-08 14:08:19,2022-05-08 14:21:10,Montrose Ave & Bushwick Ave,5068.02,Driggs Ave & N 9 St,5411.08,40.70767788,-73.94016171,40.71816969454208,-73.95520135760307,member
7D375CCE6FB12BC7,classic_bike,2022-05-17 11:39:37,2022-05-17 11:48:35,W 29 St & 9 Ave,6416.06,Lexington Ave & E 29 St,6164.09,40.7500727,-73.99839279,40.74311555376486,-73.98215353488922,member
63600880162C7C4C,classic_bike,2022-12-30 18:43:53,2022-12-30 18:47:38,Monroe St & Bedford Ave,4368.05,Putnam Ave & Throop Ave,4392.04,40.685153961,-73.953915,40.6851532,-73.94111,member
4DED9AB4C739C3DA,electric_bike,2022-01-22 12:54:35,2022-01-22 13:07:34,Great Jones St,5636.11,W Broadway & Spring St,5569.06,40.72743423,-73.99379025,40.72494672359416,-74.00165855884552,casual
E54D1B09C2C9ADF3,classic_bike,2022-01-20 17:23:38,2022-01-20 17:30:09,Washington Ave & Greene Ave,4419.03,Washington Ave & Greene Ave,4419.03,40.68650065,-73.96563307,40.68650065,-73.96563307,member
ED8FA10A33E7C1C0,classic_bike,2022-12-20 16:52:24,2022-12-20 16:57:18,Metropolitan Ave & Stewart Ave,5273.01,Jefferson St & Cypress Ave,5082.08,40.713934302,-73.927811384,40.70907,-73.92157,member
5DB232A500C51E24,classic_bike,2022-08-17 18:38:34,2022-08-17 18:53:58,E 15 St & 3 Ave,5863.07,Murray St & Greenwich St,5288.12,40.734232,-73.986923,40.71485150526252,-74.01122331619263,member
865DCCD1A17833D5,classic_bike,2022-05-18 15:21:02,2022-05-18 15:33:31,Central Park West & W 68 St,7079.06,Riverside Dr & W 82 St,7388.10,40.7734066,-73.97782542,40.78720869,-73.98128127,casual
872BD695FFB18B9C,electric_bike,2022-01-01 13:42:49,2022-01-01 13:43:39,Stanton St & Norfolk St,5445.07,Stanton St & Norfolk St,5445.07,40.720747,-73.986274,40.720747,-73.986274,casual
7D3140AFA4B2449B,classic_bike,2022-10-23 18:08:44,2022-10-23 18:14:39,Garfield Pl & 8 Ave,3978.13,West Drive & Prospect Park West,3651.04,40.671269774,-73.974930882,40.6610633719006,-73.97945255041122,member
899B7B8C516CE14C,electric_bike,2022-12-09 15:38:57,2022-12-09 15:43:19,6 Ave & W 45 St,6593.15,8 Ave & W 33 St,6450.12,40.756951,-73.982631,40.751551,-73.993934,member
EF27A0F4AB5D947B,classic_bike,2022-12-05 00:41:13,2022-12-05 00:45:37,McGuinness Blvd & Eagle St,5977.01,5 St & 51 Ave,6137.04,40.735813379,-73.952869534,40.7423737,-73.9566,member
92D20CC2C973817E,classic_bike,2022-09-01 17:07:30,2022-09-01 17:11:42,Prospect Park West & 8 St,3722.04,Plaza St West & Flatbush Ave,4010.13,40.66514681533792,-73.97637605667114,40.6750207,-73.97111473,member
16B2886E64D83E9A,classic_bike,2022-07-24 15:21:20,2022-07-24 15:35:59,West St & Chambers St,5329.03,E 1 St & 1 Ave,5593.01,40.717491269,-74.013203382,40.72335597960796,-73.98864984512329,member
6D1245ED615FF17D,classic_bike,2022-12-12 18:48:25,2022-12-12 19:05:27,Stanton St & Norfolk St,5445.07,E 41 St & Madison Ave (SE corner),6432.10,40.720756054,-73.986403465,40.752049,-73.979635,member
8B8B3E6789DEAE22,classic_bike,2022-09-07 08:55:21,2022-09-07 09:07:31,W 54 St & 11 Ave,6955.05,W 35 St & 8 Ave,6526.01,40.768333,-73.992573,40.752762088742045,-73.99280458705107,member
FD2051812DDE5A9A,classic_bike,2022-09-19 17:10:39,2022-09-19 17:16:45,E 20 St & Park Ave,6055.08,W 17 St & 7 Ave,6107.08,40.73827428,-73.98751968,40.74056423633952,-73.99852573871613,member
1777E416715F9062,classic_bike,2022-11-03 14:59:58,2022-11-03 15:18:16,W 54 St & 11 Ave,6955.05,Madison Ave & E 26 St,6131.12,40.768333,-73.992573,40.742684734875695,-73.98671329021454,casual
870A9002A05381A2,classic_bike,2022-10-23 17:35:09,2022-10-23 17:45:39,12 Ave & W 40 St,6765.01,W 17 St & 8 Ave,6148.02,40.76087502,-74.00277668,40.74177603,-74.00149746,member
CF150343828370DA,classic_bike,2022-09-13 12:57:41,2022-09-13 13:14:51,Central Park S & 6 Ave,6876.04,Central Park West & W 76 St,7253.04,40.76590936,-73.97634151,40.77896784,-73.97374737,casual
5B80E46B8A413E76,classic_bike,2022-01-17 12:50:17,2022-01-17 12:55:28,31 St & Astoria Blvd,6989.07,31 Ave & 30 St,6857.09,40.7699176,-73.9184057,40.7647,-73.9240312,member
B987D2A5068B39AE,electric_bike,2022-01-02 17:58:27,2022-01-02 18:03:58,Montrose Ave & Bushwick Ave,5068.02,Knickerbocker Ave & George St,4979.07,40.70767788,-73.94016171,40.704425,-73.92836,member
A6756EE1E41FBB3F,classic_bike,2022-08-24 19:19:03,2022-08-24 19:34:20,Murray St\t& West St,5329.08,E 2 St & 2 Ave,5593.02,40.71503,-74.01246,40.72502876,-73.99069656,member
A63BEAE7A79D83CF,classic_bike,2022-10-13 08:23:49,2022-10-13 08:29:10,Lexington Ave & E 24 St,6089.07,Broadway & E 14 St,5905.12,40.74025878,-73.98409214,40.73454567,-73.99074142,member
3284F3696D852DA7,classic_bike,2022-11-01 18:05:22,2022-11-01 18:08:37,Meserole Ave & Manhattan Ave,5666.04,Milton St & Franklin St,5752.07,40.72708584,-73.95299117,40.72906,-73.95779,member
C9F0E5C30434829E,classic_bike,2022-06-11 20:20:50,2022-06-11 20:32:09,E 2 St & Avenue B,5515.02,Lafayette St & E 8 St,5788.13,40.72217444,-73.98368779,40.73020660529954,-73.99102628231049,member
5267E529C534F3AB,classic_bike,2022-01-02 15:53:27,2022-01-02 15:59:31,Pier 40 - Hudson River Park,5696.03,Vesey Pl & River Terrace,5297.02,40.7277140777778,-74.01129573583603,40.7153379,-74.01658354,member
9316DDC46DE24A91,electric_bike,2022-06-01 08:04:16,2022-06-01 08:34:00,Prospect Pl & Vanderbilt Ave,4157.15,Prospect Pl & Vanderbilt Ave,4157.15,40.67767534269111,-73.96902143955231,40.67767534269111,-73.96902143955231,member
6C1ADA3BE191AA64,classic_bike,2022-01-22 16:02:57,2022-01-22 16:15:46,West End Ave & W 107 St,7650.05,W 90 St & Amsterdam Ave,7432.04,40.8021174,-73.9681805305,40.79017948095081,-73.97288918495178,member
7895C7BD3C96859B,classic_bike,2022-10-07 15:40:55,2022-10-07 15:51:06,28 Ave & 35 St,6951.03,31 Ave & 14 St,6966.04,40.7671,-73.9169858,40.7682,-73.9322662,member
AE7E04CF39B011E4,classic_bike,2022-01-05 16:49:00,2022-01-05 16:55:51,E 11 St & 3 Ave,5788.16,Allen St & Rivington St,5414.06,40.73127,-73.98849,40.72019576,-73.98997825,member
20E7B66C383D482B,classic_bike,2022-09-10 09:44:43,2022-09-10 09:50:38,W 116 St & Broadway,7713.11,W 95 St & Broadway,7541.01,40.8082,-73.9641,40.7937704,-73.971888,member
05F56629DC0F51C1,classic_bike,2022-11-13 12:30:24,2022-11-13 12:41:29,Broadway & E 21 St,6098.1,MacDougal St & Prince St,5687.04,40.740062475,-73.989536762,40.72710258,-74.00297088,member
F1833BAF61D37137,electric_bike,2022-06-28 15:32:24,2022-06-28 15:32:34,Madison Ave & E 26 St,6131.12,Madison Ave & E 26 St,6131.12,40.742684734875695,-73.98671329021454,40.742684734875695,-73.98671329021454,casual
F5539BF66B17003F,classic_bike,2022-09-18 11:28:28,2022-09-18 11:36:40,MacDougal St & Prince St,5687.04,W 20 St & 7 Ave,6182.02,40.72710258,-74.00297088,40.74238787,-73.99726235,member
6D9430698FBEE254,classic_bike,2022-08-19 16:41:08,2022-08-19 16:41:36,E 44 St & Lexington Ave,6464.09,E 44 St & Lexington Ave,6464.09,40.752643,-73.974996,40.752643,-73.974996,member
5D1360ACD7BA15B4,electric_bike,2022-01-31 09:08:49,2022-01-31 09:16:49,E 31 St & 3 Ave,6239.08,E 47 St & Park Ave,6584.12,40.74394314,-73.97966069,40.75510267,-73.97498696,member
FD0D1FDFBBA3D39F,classic_bike,2022-12-21 14:06:45,2022-12-21 14:15:54,Watts St & Greenwich St,5578.02,Gansevoort St & Hudson St,6072.14,40.724229217,-74.009544134,40.73944820130404,-74.00507032871246,casual
669928267119CAE8,classic_bike,2022-12-17 16:56:58,2022-12-17 17:42:25,W 29 St & 9 Ave,6416.06,E 47 St & Park Ave,6584.12,40.750105977,-73.998449206,40.75510267,-73.97498696,member
94FC3CC0168DEA62,classic_bike,2022-09-16 14:07:21,2022-09-16 14:14:59,Lafayette St & Jersey St,5561.06,Suffolk St & Stanton St,5445.02,40.72456089,-73.99565293,40.72066442,-73.98517977,member
FB448155C7833015,classic_bike,2022-12-13 05:54:53,2022-12-13 06:01:48,8 Ave & W 24 St,6224.06,Spring St & Hudson St,5653.12,40.745699406,-73.998224497,40.72583996792375,-74.0076532959938,member
683CEA79A0FBBE22,electric_bike,2022-05-25 17:29:59,2022-05-25 22:47:38,E 81 St & 3 Ave,7154.07,Stanton St & Mangin St,5326.06,40.77573034,-73.9567526,40.71782143,-73.97628939,member
A9575A8A04DB1C4E,classic_bike,2022-11-26 17:23:31,2022-11-26 17:25:56,E 169 St & Webster Ave,8122.04,3 Ave & E 170 St,8137.06,40.834109068,-73.909006834,40.834857,-73.903743,member
98F9B672FF5E8A33,classic_bike,2022-01-09 22:21:42,2022-01-09 22:58:04,Atlantic Ave & Fort Greene Pl,4354.07,Parade Pl & Crooke Ave,3376.02,40.68382604,-73.97632328,40.651847,-73.965248,member
93387DFA938C930D,classic_bike,2022-05-16 18:18:58,2022-05-16 18:19:54,Bridge St & Water St,4968.03,Bridge St & Water St,4968.03,40.70296934155272,-73.98469090461731,40.70296934155272,-73.98469090461731,member
70E0ACD4C72E70EC,electric_bike,2022-03-03 18:06:45,2022-03-03 18:14:52,5 Ave & E 103 St,7511.19,W 116 St & Amsterdam Ave,7692.11,40.7922553,-73.95249933,40.8067581,-73.9607082,member
FAFD1B0662DB07E1,classic_bike,2022-07-10 12:21:59,2022-07-10 12:27:13,Broadway & W 25 St,6173.08,E 25 St & 2 Ave,6046.02,40.74286877312112,-73.98918628692627,40.73912601,-73.97973776,member
B71089F5648BEA4B,electric_bike,2022-05-25 17:45:25,2022-05-25 18:08:43,Clinton St & Tillary St,4748.07,Perry St & Greenwich Ave,5955.12,40.69623297129316,-73.99142056703568,40.735918,-74.000939,casual
B3D5038C467E4D23,classic_bike,2022-10-11 09:24:13,2022-10-11 09:31:32,E 9 St & 5 Ave,5872.1,W Broadway & Spring St,5569.06,40.73275887045087,-73.99581670761108,40.72494672359416,-74.00165855884552,member
3F3D092E8DBEB376,electric_bike,2022-05-30 21:49:19,2022-05-30 21:57:23,Central Park West & W 85 St,7354.01,Frederick Douglass Blvd & W 115 St,7658.13,40.78476,-73.969862,40.8038654,-73.9559308,member
CF3F228A0B8EA7AE,electric_bike,2022-06-26 00:22:32,2022-06-26 00:33:03,23 Ave & 27 St,7178.02,Steinway St & Broadway,6711.13,40.776165,-73.9153175,40.75905795418586,-73.91897544264793,member
44BABFF9C03630F5,classic_bike,2022-01-20 22:47:36,2022-01-20 23:00:08,Reade St & Broadway,5247.1,Stanton St & Chrystie St,5523.02,40.71450451,-74.00562789,40.72229346,-73.99147535,member
55EB5F11D0749559,classic_bike,2022-11-03 10:01:17,2022-11-03 10:16:02,Forsyth St & Canal St,5270.07,W 15 St & 6 Ave,5989.02,40.7158155,-73.99422366,40.738046142482766,-73.99642959237099,member
1BD38363EF5E1C1E,electric_bike,2022-01-26 17:12:18,2022-01-26 17:22:46,35 Ave & 10 St,6806.06,Steinway St & Broadway,6711.13,40.76315481910373,-73.93985509872437,40.75905795418586,-73.91897544264793,member
A75C8F076AC35758,classic_bike,2022-03-16 18:06:33,2022-03-16 19:03:05,Van Brunt St & Van Dyke St,4095.1,Wolcott St & Dwight St,4054.02,40.6758329439129,-74.01472628116608,40.6753274,-74.0100698,member
8EFDDC4762E46127,classic_bike,2022-01-26 09:40:20,2022-01-26 09:42:30,E 84 St & 1 Ave,7180.02,E 88 St & 1 Ave,7235.13,40.77565541,-73.95068615,40.778301,-73.9488134,member
D3F344A37911F5B0,classic_bike,2022-07-03 13:21:02,2022-07-03 13:27:49,Central Park S & 6 Ave,6876.04,8 Ave & W 52 St,6816.07,40.76590936,-73.97634151,40.76370739,-73.9851615,member
CEC00878DF7EBC1A,classic_bike,2022-11-19 11:41:52,2022-11-19 11:48:40,Flatbush Ave & Ocean Ave,3704.04,Prospect Park SW & Vanderbilt St,3457.03,40.663574219,-73.962908983,40.65482,-73.973217,member
19450360500ABD68,electric_bike,2022-07-21 17:31:13,2022-07-21 17:46:21,Riverside Dr & W 72 St,7288.04,8 Ave & W 33 St,6450.12,40.78057799010334,-73.98562431335449,40.751551,-73.993934,member
210A5490A11B42CE,classic_bike,2022-12-20 17:42:36,2022-12-20 18:01:49,E 17 St & Broadway,5980.07,Perry St & Bleecker St,5922.07,40.73704984,-73.99009296,40.73535398,-74.00483091,member
981CE7D236B90111,classic_bike,2022-10-31 16:30:59,2022-10-31 16:39:28,Gramercy Park N & Gramercy Park E,6013.12,E 40 St & Park Ave,6432.11,40.73795,-73.98509,40.750756,-73.978326,member
7FE75BBDC9C1E16F,classic_bike,2022-03-06 12:30:49,2022-03-06 12:38:47,5 Ave & E 87 St,7323.09,W 84 St & Columbus Ave,7382.04,40.78232260730881,-73.95987510681152,40.78499979,-73.97283406,member
94A544B08DB153CD,classic_bike,2022-08-16 16:50:54,2022-08-16 16:54:59,Driggs Ave & N 9 St,5411.08,Engert Ave & McGuinness Blvd,5473.03,40.718165636,-73.955176115,40.72158,-73.94546,member
A62468B49C6C20D7,electric_bike,2022-07-29 20:00:43,2022-07-29 20:10:36,Dock 72 Way & Market St,4804.02,Fulton St & Irving Pl,4263.12,40.69985,-73.97141,40.68186,-73.959432,member
77E6016BBA70BE0A,classic_bike,2022-10-10 16:37:40,2022-10-10 16:45:12,E 20 St & 2 Ave,5971.08,W 13 St & 5 Ave,5947.04,40.73587678,-73.98205027,40.735445,-73.99431,member
70C19219CFD69BEB,classic_bike,2022-06-26 12:19:43,2022-06-26 12:28:24,Water St &  Fletcher St,5024.1,Spruce St & Gold St,5137.13,40.707064748,-74.005538583,40.7103231,-74.0043228,member
FF97A31471A6B0B5,classic_bike,2022-05-08 16:09:15,2022-05-08 16:18:47,W 4 St & 7 Ave S,5880.02,E 1 St & 1 Ave,5593.01,40.73401143,-74.00293877,40.72335597960796,-73.98864984512329,member
290DB1002EF06BE8,classic_bike,2022-08-10 10:28:35,2022-08-10 10:31:34,Bedford Ave & Nassau Ave,5550.05,Berry St & N 8 St,5379.09,40.72311651,-73.95212324,40.7190095,-73.95852515,member
FD9E947AEAA54F98,classic_bike,2022-08-22 09:39:30,2022-08-22 09:44:01,E 106 St & 1 Ave,7456.03,Pleasant Ave & E 116 St,7450.05,40.7892529,-73.93956237,40.7949879,-73.9333349,member
B2DDD07B411F04E6,electric_bike,2022-06-12 19:22:31,2022-06-12 19:25:56,Central Park North & Adam Clayton Powell Blvd,7617.07,Central Park North & Adam Clayton Powell Blvd,7617.07,40.799484,-73.955613,40.799484,-73.955613,member
9164681C1EE33442,electric_bike,2022-11-08 07:14:30,2022-11-08 07:30:27,Orchard St & Grand St,5343.11,E 53 St & Lexington Ave,6617.09,40.717318403855785,-73.99067759513855,40.75828065,-73.97069431,member
A85343A483466D49,classic_bike,2022-10-12 14:17:52,2022-10-12 14:45:36,7 Ave & Central Park South,6912.01,W 76 St & Columbus Ave,7281.09,40.7667405590595,-73.9790689945221,40.7801839724239,-73.97728532552719,member
92B446B2E03A9277,classic_bike,2022-01-10 22:59:14,2022-01-10 23:10:12,44 Dr & Jackson Ave,6352.01,Crescent St & Broadway,6827.11,40.74718234,-73.9432635,40.7633589,-73.9286471,member
082A507CECB67D61,electric_bike,2022-11-01 11:25:49,2022-11-01 11:35:08,W 56 St & 8 Ave,6884.03,Broadway & W 29 St,6289.06,40.765959181657976,-73.98313522338867,40.7462009,-73.98855723,member
D1CF0FEF87CF49FB,classic_bike,2022-01-12 14:45:41,2022-01-12 14:49:23,E 2 St & Avenue B,5515.02,1 Ave & E 6 St,5626.15,40.72217444,-73.98368779,40.72633085971696,-73.98616880178452,member
B3592749002F2853,classic_bike,2022-07-10 00:26:37,2022-07-10 00:42:54,Great Jones St,5636.11,Fulton St & William St,5137.11,40.72743423,-73.99379025,40.70960089363537,-74.00655090808868,member
22C7AB29D58F8CBB,electric_bike,2022-03-21 16:48:56,2022-03-21 17:02:24,E 40 St & Park Ave,6432.11,Amsterdam Ave & W 66 St,7149.05,40.750756,-73.978326,40.7746671,-73.98470567,member
5C87BA88C16F7F1D,classic_bike,2022-08-03 18:11:20,2022-08-03 18:19:35,Jackson Ave & 46 Rd,6203.02,Center Blvd & 51 Ave,6179.07,40.74524768,-73.94733276,40.74336608027021,-73.95960688591003,member
782E2A46C5193B20,classic_bike,2022-08-21 04:20:02,2022-08-21 04:22:01,Madison St & Clinton St,5190.07,Clinton St & Cherry St,5190.09,40.71269042,-73.98776323,40.711471394469264,-73.98672603070736,member
71463C7BDE8F2A3C,classic_bike,2022-08-30 16:30:09,2022-08-30 16:36:21,E 31 St & 3 Ave,6239.08,E 44 St & Lexington Ave,6464.09,40.74394314,-73.97966069,40.752643,-73.974996,member
2518B4A6DFB461B8,classic_bike,2022-07-20 20:34:27,2022-07-20 20:50:12,E 9 St & 5 Ave,5872.1,Bialystoker Pl & Delancey St,5335.03,40.73275887045087,-73.99581670761108,40.71622644,-73.98261206,member
F9463EAEF613AACA,classic_bike,2022-07-27 08:45:34,2022-07-27 08:52:03,South St & Gouverneur Ln,4953.04,Little West St & 1 Pl,5001.08,40.70355377,-74.00670227,40.70569254,-74.01677685,casual
615EB09901B8B7E2,classic_bike,2022-05-11 17:03:44,2022-05-11 17:25:50,Central Park West & W 72 St,7141.07,W 116 St & Broadway,7713.11,40.77579376683666,-73.9762057363987,40.8082,-73.9641,member
4043AD00DEEE3074,classic_bike,2022-10-24 16:38:12,2022-10-24 16:41:38,Hicks St & Montague St,4645.09,Court St & State St,4488.08,40.69512845,-73.99595065,40.6902375,-73.99203074,member
EAACCBDA4185E5D1,classic_bike,2022-08-27 17:52:17,2022-08-27 17:57:48,11 Ave & W 41 St,6726.01,West End Ave & W 60 St,7059.08,40.76030096,-73.99884222,40.77237,-73.99005,member
1BED01C96C94C1F6,classic_bike,2022-12-05 14:33:55,2022-12-05 14:55:18,Division Ave & Marcy Ave,5084.03,Jay St & York St,4895.09,40.707126498,-73.957982898,40.70140317257725,-73.98672670125961,casual
A411F1362A6DE9B8,classic_bike,2022-11-15 16:54:05,2022-11-15 17:13:58,Columbus Ave & W 72 St,7175.05,3 Ave & E 62 St,6762.04,40.7770575,-73.97898475,40.76312584,-73.96526895,member
7FAEEC78421827D5,classic_bike,2022-10-09 13:31:55,2022-10-09 13:46:55,W 30 St & 10 Ave,6459.07,7 Ave S & Bleecker St,5805.07,40.752694,-74.002353,40.73213896287381,-74.00363802909851,member
00B9C1F9223DBCFE,classic_bike,2022-03-26 10:04:44,2022-03-26 10:57:06,Spruce St & Nassau St,5137.1,7 Ave & Central Park South,6912.01,40.71146364,-74.00552427,40.7667405590595,-73.9790689945221,member
D0B212D91B34CC15,classic_bike,2022-01-14 15:44:38,2022-01-14 15:57:10,Cleveland Pl & Spring St,5492.05,E 23 St & 1 Ave,5929.01,40.722103786686034,-73.99724900722504,40.736502,-73.97809472,member
151C355B9DEB6D44,electric_bike,2022-11-12 15:57:48,2022-11-12 16:18:49,Franklin Ave & Myrtle Ave,4715.01,Forsyth St & Canal St,5270.07,40.694546087246025,-73.95801365375519,40.7158155,-73.99422366,casual
E6E9D465D2305D7A,classic_bike,2022-08-29 06:57:18,2022-08-29 07:04:57,Hoyt St & Warren St,4330.09,Fulton St & Adams St,4637.06,40.6843549,-73.98901629,40.69241829257847,-73.98949474096298,member
011C8671378F65CF,classic_bike,2022-09-06 16:06:36,2022-09-06 16:12:31,Ave D & E 8 St,5506.1,E 20 St & FDR Dr,5886.13,40.72368361,-73.97574813,40.733208626522426,-73.9756813647,member
F1B22E08FB0A97B0,classic_bike,2022-03-20 15:21:05,2022-03-20 15:23:48,Pierrepont St & Monroe Pl,4718.08,Henry St & Middagh St,4861.05,40.69535693320225,-73.99344027042389,40.7003,-73.991581,member
22A51E5FBBD3F0D9,classic_bike,2022-12-29 21:46:40,2022-12-29 22:28:51,Main St & Plymouth St,4936.21,Centre St & Chambers St,5207.01,40.70378167354831,-73.99073392152786,40.71273266,-74.0046073,casual
A2E466C61A95CB3C,classic_bike,2022-12-09 09:27:13,2022-12-09 09:34:36,W 111 St & 5 Ave,7587.16,E 98 St & Park Ave,7443.17,40.79752078124756,-73.9489397406578,40.78813,-73.95206,member
BCCD3734BE3E1412,electric_bike,2022-12-17 11:08:00,2022-12-17 11:10:17,E 20 St & FDR Dr,5886.13,E 20 St & 2 Ave,5971.08,40.733208626522426,-73.9756813647,40.73587678,-73.98205027,member
5F92FAA43EB13463,classic_bike,2022-11-15 15:33:37,2022-11-15 15:43:56,W 47 St & 9 Ave,6786.02,W 20 St & 7 Ave,6182.02,40.761428237,-73.990023017,40.74238787,-73.99726235,member
8371B79D76BCD565,classic_bike,2022-08-17 18:01:56,2022-08-17 18:15:46,Bayard St & Leonard St,5442.05,McGuinness Blvd & Eagle St,5977.01,40.71915571696044,-73.94885390996933,40.73555,-73.95284,member
591351555E410911,classic_bike,2022-08-20 17:58:05,2022-08-20 18:14:12,E 58 St & 1 Ave (NW Corner),6723.10,Lexington Ave & E 24 St,6089.07,40.759125,-73.962658,40.74025878,-73.98409214,member
6FCBE8AE94A53EAA,classic_bike,2022-10-28 12:47:44,2022-10-28 12:57:25,Brook Ave & E 138 St,7707.08,Lexington Ave & E 120 St,7652.04,40.807355881,-73.919376493,40.8013066,-73.9398167,casual
81FEDD9204CDDBF5,classic_bike,2022-08-07 12:01:14,2022-08-07 12:30:43,Grand Army Plaza & Central Park S,6839.1,E 44 St & 2 Ave,6422.09,40.7643971,-73.97371465,40.75118387463277,-73.97138714790344,casual
6F1C530E74B18BE6,classic_bike,2022-01-11 06:51:43,2022-01-11 06:58:55,St Johns Pl & Washington Ave,4001.09,Atlantic Ave & Fort Greene Pl,4354.07,40.6737236,-73.9631611,40.68382604,-73.97632328,member
CBEC1164B8005B5F,classic_bike,2022-03-11 13:13:48,2022-03-11 13:21:45,11 Ave & W 41 St,6726.01,W 29 St & 9 Ave,6416.06,40.76030096,-73.99884222,40.7500727,-73.99839279,member
DFCE3E9824D3AFA0,classic_bike,2022-01-12 13:35:52,2022-01-12 13:40:36,E 7 St & Avenue A,5626.07,St Marks Pl & 2 Ave,5669.1,40.72621788,-73.98379855,40.7284186,-73.98713956,member
122A4325BD0B2A01,classic_bike,2022-05-05 21:30:29,2022-05-05 21:49:31,W 22 St & 10 Ave,6306.06,E 20 St & 2 Ave,5971.08,40.74691959,-74.00451887,40.73587678,-73.98205027,member
A30FF5FAA684883F,classic_bike,2022-05-19 14:16:43,2022-05-19 14:28:53,Lafayette St & Jersey St,5561.06,W 15 St & 6 Ave,5989.02,40.72456089,-73.99565293,40.738046142482766,-73.99642959237099,casual
0F4F296556C08FE7,classic_bike,2022-05-28 09:23:49,2022-05-28 09:28:24,Manhattan Av & Leonard St,5442.09,Graham Ave & Conselyea St,5291.05,40.72084,-73.94844,40.715143,-73.944507,member
0FBED182D5020547,electric_bike,2022-03-30 09:05:29,2022-03-30 09:14:45,Reade St & Broadway,5247.1,Forsyth St\t& Grand St,5382.07,40.71450451,-74.00562789,40.71779817737835,-73.99316132068634,member
8B647DAFF203A821,classic_bike,2022-05-15 09:47:38,2022-05-15 10:26:24,W 70 St & Amsterdam Ave,7207.08,5 Ave & E 103 St,7511.19,40.77748046,-73.98288594,40.7922553,-73.95249933,casual
680E38C3114602F1,classic_bike,2022-05-10 09:08:12,2022-05-10 09:10:16,W 40 St & 5 Ave,6474.02,E 40 St & Park Ave,6432.11,40.752269,-73.982079,40.750756,-73.978326,member
5FC27EEEF3B96936,classic_bike,2022-07-15 06:50:31,2022-07-15 06:51:04,FDR Drive & E 35 St,6230.04,FDR Drive & E 35 St,6230.04,40.744219,-73.97121214,40.744219,-73.97121214,member
15CD535FB03DDBEF,classic_bike,2022-12-02 19:05:41,2022-12-02 19:06:36,W 46 St & 11 Ave,6795.01,W 44 St & 11 Ave,6756.05,40.76341379,-73.99667444,40.762009,-73.996975,member
4AD3ADF03EF4CD2E,classic_bike,2022-10-07 19:00:42,2022-10-07 19:28:36,Pike St & Monroe St,5159.04,Centre St & Worth St,5279.03,40.71173107,-73.99193043,40.71494807,-74.00234482,member
CF9AD578596CA81A,classic_bike,2022-06-28 17:57:55,2022-06-28 18:29:08,W 100 St & Broadway,7580.01,W 44 St & 11 Ave,6756.05,40.7973721,-73.97041192,40.762009,-73.996975,casual
46F41DE485CDB88C,classic_bike,2022-10-31 08:09:29,2022-10-31 08:15:31,Kenmare St & Elizabeth St,5453.06,Lafayette St & E 8 St,5788.13,40.720507741,-73.994827032,40.73020660529954,-73.99102628231049,member
9FF4CBC0DDE08927,classic_bike,2022-12-09 14:12:52,2022-12-09 14:23:13,Amsterdam Ave & W 79 St,7311.02,W 47 St & 9 Ave,6786.02,40.782715321,-73.978296518,40.76153045158114,-73.99007007479668,casual
7303941D7AD5E11A,classic_bike,2022-07-23 10:29:57,2022-07-23 10:34:10,E 31 St & 3 Ave,6239.08,Lexington Ave & E 24 St,6089.07,40.74394314,-73.97966069,40.74025878,-73.98409214,member
DB0D5B286C60F4D4,classic_bike,2022-01-20 17:11:48,2022-01-20 17:15:58,Norfolk St & Broome St,5374.01,Henry St & Grand St,5294.04,40.7172274,-73.98802084,40.714211,-73.981095,member
0CDCB984304F834D,classic_bike,2022-11-06 15:10:56,2022-11-06 15:21:02,Lafayette Ave & St James Pl,4494.04,Lewis Ave & Kosciuszko St,4617.01,40.68851534,-73.9647628,40.69237074,-73.93705428,casual
D2033486C7967E80,classic_bike,2022-01-18 21:45:37,2022-01-18 21:52:41,Devoe St & Morgan Ave,5282.02,Montrose Ave & Bushwick Ave,5068.02,40.713811,-73.93515,40.70767788,-73.94016171,member
5CCA063E3F7AA768,electric_bike,2022-01-12 17:32:16,2022-01-12 17:47:30,Mercer St & Bleecker St,5679.05,E 41 St & Madison Ave (SE corner),6432.1,40.72706363348306,-73.99662137031554,40.752049,-73.979635,member
E2BFA42A7C3B9897,classic_bike,2022-03-20 14:51:53,2022-03-20 15:11:42,S 5 Pl & S 5 St,5125.03,Stanton St & Norfolk St,5445.07,40.710451,-73.960876,40.720747,-73.986274,casual
30B30D8B85BC0D17,classic_bike,2022-01-06 15:53:06,2022-01-06 16:05:31,Montrose Ave & Bushwick Ave,5068.02,Scholes St & Manhattan Ave,5108.01,40.70767788,-73.94016171,40.70870368,-73.9448625,member
1C6F0C4A7291597B,classic_bike,2022-10-11 07:49:59,2022-10-11 07:56:09,Lafayette Ave & Ft Greene Pl,4470.09,Emerson Pl & Myrtle Ave,4683.02,40.687052608,-73.976920366,40.69363137,-73.96223558,member
E53088401018D4EB,classic_bike,2022-12-15 12:18:58,2022-12-15 12:23:13,Nassau St & Navy St,4812.02,Adelphi St & Myrtle Ave,4620.02,40.698394179,-73.980907083,40.69308257,-73.97178913,member
C69B2B24408D12F5,classic_bike,2022-10-14 17:35:16,2022-10-14 17:42:20,8 Ave & W 33 St,6450.12,W 45 St & 8 Ave,6676.02,40.751551,-73.993934,40.75929124,-73.98859651,member
2EF4BBB38D647A79,classic_bike,2022-06-26 14:04:46,2022-06-26 14:26:55,W 100 St & Manhattan Ave,7538.14,St Nicholas Ave & W 134 St,7837.30,40.795,-73.9645,40.816234,-73.948222,casual
6DA9A54F69C2F740,docked_bike,2022-07-15 16:15:53,2022-07-15 17:30:39,W 13 St & 5 Ave,5947.04,3 Ave & E 62 St,6762.04,40.735445,-73.99431,40.763126,-73.965269,casual
D3E28265EAC63437,classic_bike,2022-03-27 18:51:34,2022-03-27 19:10:01,Willoughby Ave & Myrtle Ave,4759.02,Monroe St & Classon Ave,4336.01,40.69757,-73.93098,40.6845683,-73.95881081,member
AF53B70B0704C390,classic_bike,2022-05-30 13:46:41,2022-05-30 14:11:12,W 15 St & 10 Ave,6115.09,W 15 St & 10 Ave,6115.09,40.74275382865903,-74.00747358798981,40.74275382865903,-74.00747358798981,member
0F708D33C81759D1,electric_bike,2022-05-20 10:34:13,2022-05-20 10:46:40,Duffield St & Willoughby St,4596.05,St James Pl & Oliver St,5238.05,40.69221589,-73.9842844,40.71307916,-73.99851193,member
A0B0C4AD7BAE8586,classic_bike,2022-07-09 14:42:00,2022-07-09 15:27:12,Church Ave & McDonald Ave,3090.06,Church Ave & McDonald Ave,3090.06,40.64293015,-73.979037523,40.642809,-73.979239,member
836DAC4F82D46A4A,classic_bike,2022-11-29 18:36:51,2022-11-29 18:56:17,Orchard St & Grand St,5343.11,Carroll St & 6 Ave,4019.06,40.717345357,-73.990480781,40.6740886,-73.9787282,member
6A84A846F4C2D561,electric_bike,2022-08-30 23:32:37,2022-08-30 23:59:42,Lexington Ave & E 24 St,6089.07,Ashland Pl & Dekalb Ave,4513.09,40.74025878,-73.98409214,40.690065,-73.978776,casual
90CD001D8F04A5D1,electric_bike,2022-06-14 17:37:29,2022-06-14 17:48:35,Hudson St & W 13 St,6115.06,Cooper Square & Astor Pl,5712.03,40.74005708567285,-74.0052741765976,40.72951496224949,-73.99075269699097,casual
0417C6E5EBF3DAE6,classic_bike,2022-05-16 15:44:18,2022-05-16 16:13:03,E 48 St & 3 Ave,6541.03,45 Rd & 11 St,6319.01,40.7546011026,-73.971878855,40.74708586,-73.94977234,casual
61B70A967A25FF53,classic_bike,2022-05-20 16:06:32,2022-05-20 16:10:43,3 St & Prospect Park West,3865.05,10 St & 7 Ave,3762.08,40.668132,-73.97363831,40.6662078,-73.98199886,member
5BE8E0E528B1629F,electric_bike,2022-09-24 12:50:51,2022-09-24 13:20:43,Willoughby Ave & Wyckoff Ave,5010.02,Greene Ave & Nostrand Ave,4519.02,40.705614,-73.92153,40.6883337,-73.950916,member
956FB89BB3EED744,electric_bike,2022-01-06 18:22:34,2022-01-06 18:31:23,E 39 St & 2 Ave,6345.08,E 4 St & 2 Ave,5593.04,40.74803319428767,-73.973827958107,40.7262807,-73.98978041,member
F10085EA1FBEA103,classic_bike,2022-05-24 19:41:34,2022-05-24 19:48:39,West St & Chambers St,5329.03,Spring St & Hudson St,5653.12,40.71754834,-74.01322069,40.72583996792375,-74.0076532959938,member
FA03F4B1416719FC,classic_bike,2022-06-05 13:48:47,2022-06-05 14:15:23,Columbia Heights & Cranberry St,4829.01,3 St & 7 Ave,3905.15,40.70037867,-73.99548059,40.6703837,-73.97839676,casual
B46AABDD892C37C2,classic_bike,2022-08-19 19:23:04,2022-08-19 19:39:50,Broadway & Battery Pl,4962.01,Vesey Pl & River Terrace,5297.02,40.70463334,-74.01361706,40.7153379,-74.01658354,casual
37466FBF8FFDC2C2,classic_bike,2022-06-23 07:56:51,2022-06-23 08:14:28,5 Ave & E 87 St,7323.09,E 98 St & Park Ave,7443.17,40.78232260730881,-73.95987510681152,40.78813,-73.95206,member
F23D46EB17A9A192,classic_bike,2022-10-21 20:59:09,2022-10-21 21:24:48,W 41 St & 8 Ave,6602.03,E 106 St & Lexington Ave,7504.18,40.75640548,-73.9900262,40.791976,-73.945993,member
D2F98181FFB446A8,classic_bike,2022-05-04 22:15:19,2022-05-04 22:16:57,2 Ave & E 96 St,7338.02,2 Ave & E 99 St,7386.10,40.7839636,-73.9471673,40.7862586,-73.94552579,member
B2133EA3ACA6AC71,classic_bike,2022-05-31 15:18:38,2022-05-31 15:20:44,12 Ave & 36 St,3056.05,Dahill Rd & 12 Ave,3208.07,40.643546,-73.986418,40.646037,-73.980963,casual
D2179DCDE061AF82,classic_bike,2022-05-25 14:01:52,2022-05-25 14:03:21,34 Ave & 48 St,6554.05,34 Ave & 45 St,6596.1,40.75388,-73.914952,40.754795,-73.917014,member
A41D6A44FED11692,classic_bike,2022-08-09 17:23:02,2022-08-09 17:27:47,Jay St & York St,4895.09,Cadman Plaza E & Tillary St,4677.01,40.70140317257725,-73.98672670125961,40.69597683,-73.99014892,member
B99BEF26041C8649,classic_bike,2022-06-22 08:48:57,2022-06-22 08:52:51,E 9 St & 5 Ave,5872.1,Mercer St & Bleecker St,5679.05,40.73275887045087,-73.99581670761108,40.72706363348306,-73.99662137031554,member
4E962FA51C6C7283,classic_bike,2022-11-06 06:20:38,2022-11-06 06:43:39,11 Ave & W 27 St,6425.04,Little West St & 1 Pl,5001.08,40.751396,-74.005226,40.70569254,-74.01677685,member
09769C155EC13A2A,electric_bike,2022-01-13 12:20:16,2022-01-13 12:29:46,Lenox Ave & W 117 St,7655.22,W 95 St & Broadway,7541.01,40.8025566,-73.9490782,40.7937704,-73.971888,member
7C1C46164604D735,classic_bike,2022-05-17 16:00:49,2022-05-17 16:47:16,Plaza St East & Flatbush Ave,4010.01,George St & Wilson Ave,4906.07,40.673134,-73.969106,40.702997,-73.92997,member
FBA9C391D44C8554,classic_bike,2022-05-22 23:21:40,2022-05-22 23:35:55,Monroe St & Bedford Ave,4368.05,Flatbush Ave & Ocean Ave,3704.04,40.6851443,-73.95380904,40.663657,-73.963014,casual
A5374E3FC286A51A,classic_bike,2022-08-11 23:24:19,2022-08-11 23:33:06,Montrose Ave & Bushwick Ave,5068.02,Bushwick Ave & Harman St,4640.01,40.70767788,-73.94016171,40.69356,-73.92524,casual
0098683E90C62EF5,classic_bike,2022-12-21 21:09:47,2022-12-21 21:19:57,W 42 St & Dyer Ave,6644.07,E 31 St & 3 Ave,6239.08,40.758939743,-73.993737578,40.74394314,-73.97966069,member
B9CA7AA204A5394D,classic_bike,2022-11-05 10:37:27,2022-11-05 10:39:51,Center Blvd & 51 Ave,6179.07,Vernon Blvd & 50 Ave,6170.02,40.74336608027021,-73.95960688591003,40.74232744,-73.95411749,member
644CAB2E214DF84C,classic_bike,2022-12-05 16:25:41,2022-12-05 16:31:23,E 44 St & Lexington Ave,6464.09,FDR Drive & E 35 St,6230.04,40.760211706,-73.973602772,40.744219,-73.97121214,member
67633D50184A3022,classic_bike,2022-11-05 11:24:00,2022-11-05 11:43:40,Adams St & Prospect St,4821.1,E 7 St & Ave B,5584.05,40.70076308326151,-73.98869812488556,40.7251285241158,-73.98131668567657,member
8870B65CCA659C89,electric_bike,2022-08-13 20:43:12,2022-08-13 21:09:12,Leonard St & Nassau Ave,5550.09,Kingston Ave & Herkimer St,4205.06,40.7239567849954,-73.94984364509583,40.67890679,-73.94142771,casual
F5B1B18C3EA2E3DB,classic_bike,2022-08-14 16:26:09,2022-08-14 16:35:09,E 5 St & Cooper Sq,5712.12,Cleveland Pl & Spring St,5492.05,40.72769,-73.990993,40.722103786686034,-73.99724900722504,member
FAFA70AEA84B3EB3,classic_bike,2022-06-13 18:44:15,2022-06-13 19:06:03,6 Ave & W 33 St,6364.07,E 88 St & 1 Ave,7235.13,40.74901271,-73.98848395,40.778301,-73.9488134,member
735919E1D08E7D07,classic_bike,2022-08-05 18:05:25,2022-08-05 18:16:03,6 Ave & Walker St,5430.1,W 13 St & 7 Ave,6030.04,40.7197920901383,-74.0052238852195,40.73781509,-73.99994661,member
A8D3512F4FCF1EB7,classic_bike,2022-10-14 22:26:46,2022-10-14 22:32:25,Hicks St & Montague St,4645.09,Willoughby St & Ashland Pl,4587.02,40.695082426,-73.995867491,40.69178,-73.97877,member
681C52CC0A8A6FB3,classic_bike,2022-09-17 14:08:04,2022-09-17 14:20:01,E 91 St & Park Ave,7344.05,West End Ave & W 107 St,7650.05,40.783400893,-73.955287337,40.8021174,-73.9681805305,member
58CC4306CAB92774,classic_bike,2022-01-03 13:24:48,2022-01-03 13:30:42,W 15 St & 7 Ave,6030.06,W 21 St & 6 Ave,6140.05,40.73935542,-73.99931783,40.74173969,-73.99415556,member
3995D628F0F3A101,classic_bike,2022-10-11 20:20:53,2022-10-11 20:35:40,Driggs Ave & N 9 St,5411.08,Grand St & Havemeyer St,5267.08,40.71816969454208,-73.95520135760307,40.71286844,-73.95698119,member
EAFC48E9F6DFA61A,classic_bike,2022-03-31 14:11:08,2022-03-31 14:23:08,W 21 St & 6 Ave,6140.05,W 30 St & 10 Ave,6459.07,40.74173969,-73.99415556,40.752694,-74.002353,member
C5CEF54A058DE105,classic_bike,2022-10-27 14:52:17,2022-10-27 14:58:40,E 68 St & 3 Ave,6896.16,E 97 St & 3 Ave,7365.08,40.766916156,-73.962148666,40.7859201,-73.94860294,casual
D659A7633A1B8E98,classic_bike,2022-06-05 19:44:35,2022-06-05 19:46:57,5 Ave & 3 St,3987.06,7 St & 5 Ave,3914.02,40.6728155,-73.98352355,40.6704922,-73.98541675,member
DC9C56E821CE2008,electric_bike,2022-03-02 07:42:19,2022-03-02 07:47:50,Metropolitan Ave & Bedford Ave,5308.04,Union Ave & Jackson St,5300.06,40.71534825,-73.96024116,40.7160751,-73.952029,member
7F89C09A08F9624D,electric_bike,2022-06-05 13:53:44,2022-06-05 13:56:19,DeKalb Ave & S Portland Ave,4546.04,Cumberland St & Lafayette Ave,4428.02,40.68981035,-73.97493121,40.68753406,-73.97265183,member
8C0F6B327A241E4A,electric_bike,2022-11-11 01:59:50,2022-11-11 02:01:39,E 102 St & 1 Ave,7407.13,2 Ave & E 99 St,7386.10,40.7869946,-73.94164802,40.7862586,-73.94552579,member
DEDE2A015F1A5500,classic_bike,2022-12-08 18:19:47,2022-12-08 18:21:45,E 81 St & 3 Ave,7154.07,E 81 St & Park Ave,7188.1,40.77573034,-73.9567526,40.77677702,-73.9590097,member
81101211EF7CDAE6,electric_bike,2022-08-03 13:57:33,2022-08-03 14:10:42,Milton St & Franklin St,5752.07,31 St & Northern Blvd,6495.17,40.72906,-73.95779,40.75186951421875,-73.93349289894103,member
DF9C122DB8CC41E3,classic_bike,2022-03-25 17:45:24,2022-03-25 18:02:19,E 9 St & 5 Ave,5872.1,Carmine St & 6 Ave,5763.03,40.73275887045087,-73.99581670761108,40.73038599,-74.00214988,casual
D7E48FDDBB9F8A3C,classic_bike,2022-11-16 14:03:21,2022-11-16 14:11:22,11 Ave & W 59 St,7059.01,11 Ave & W 41 St,6726.01,40.77149671054441,-73.99046033620834,40.76030096,-73.99884222,member
F92524227AD048B3,electric_bike,2022-01-24 21:11:32,2022-01-24 21:22:52,MacDougal St & Prince St,5687.04,Lexington Ave & E 26 St,6089.08,40.72710258,-74.00297088,40.741459,-73.983293,member
EDF34774ED270ED5,electric_bike,2022-10-17 11:38:12,2022-10-17 11:41:04,W 54 St & 11 Ave,6955.05,W 54 St & 9 Ave,6920.03,40.768333,-73.992573,40.76584941,-73.98690506,member
EDB4642A238BEF64,classic_bike,2022-11-06 17:54:06,2022-11-06 17:56:08,Catherine St & Monroe St,5128.04,St James Pl & Oliver St,5238.05,40.71117444,-73.99682619,40.71307916,-73.99851193,member
939978616CECD92A,classic_bike,2022-09-21 13:46:24,2022-09-21 14:07:27,Lewis Ave & Decatur St,4237.01,Bergen St & Flatbush Ave,4281.08,40.6814598,-73.934903,40.680944723477296,-73.97567331790923,member
80E23E38C552DE0A,classic_bike,2022-07-07 13:39:58,2022-07-07 14:38:28,W 34 St & 11 Ave,6578.01,10 Ave & W 14 St,6157.04,40.75594159,-74.0021163,40.74198159994023,-74.00831580162048,casual
A6D9FADCDFE15555,classic_bike,2022-01-14 11:17:15,2022-01-14 11:37:34,6 Ave & W 45 St,6593.15,E 88 St & 1 Ave,7235.13,40.756951,-73.982631,40.778301,-73.9488134,member
662CA3E272A61D15,classic_bike,2022-03-28 07:37:03,2022-03-28 07:43:46,Broadway & W 41 St,6560.01,E 47 St & Park Ave,6584.12,40.75513557,-73.98658032,40.75510267,-73.97498696,member
E5A15B63E5040CEF,classic_bike,2022-07-03 14:17:38,2022-07-03 14:23:57,E 76 St & Park Ave,7128.08,E 81 St & York Ave,7084.12,40.773763,-73.96222088,40.7728384,-73.94989233,member
0BF16C53DD3964F8,classic_bike,2022-08-31 12:39:16,2022-08-31 12:53:45,Clinton St & Union St,4266.03,Front St & Jay St,4895.03,40.6831164,-73.99785267,40.702461,-73.986842,member
E403D7B897799997,docked_bike,2022-06-11 10:50:08,2022-06-11 11:35:11,41 St & 4 Ave,3347.03,6 Ave & 60 St,2912.08,40.651354,-74.007168,40.638196,-74.013821,casual
95D66585EB671DE7,classic_bike,2022-06-11 17:16:52,2022-06-11 17:32:20,E 11 St & 1 Ave,5746.14,E 55 St & 2 Ave,6650.07,40.72953837,-73.98426726,40.75797322,-73.96603308,member
17807B11F2225B1C,docked_bike,2022-03-03 10:01:46,2022-03-03 10:19:02,W 26 St & 8 Ave,6297.02,8 Ave & W 49 St,6747.07,40.747348,-73.997236,40.761712,-73.986551,casual
DE7FC63D9764CA41,classic_bike,2022-10-31 23:49:23,2022-10-31 23:54:02,E 171 St & Webster Ave,8190.03,3 Ave & E 169 St,8103.05,40.838360786,-73.905738711,40.832678,-73.905158,member
544137CD6DA6EE0A,classic_bike,2022-12-10 22:47:35,2022-12-10 22:49:39,N Moore St & Hudson St,5470.02,Hudson St & Reade St,5359.10,40.720033407,-74.008480549,40.71625008,-74.0091059,member
B373E9C7DD12648D,classic_bike,2022-12-12 13:54:47,2022-12-12 13:59:02,12 Ave & W 125 St,7886.02,W 120 St & Claremont Ave,7745.07,40.818123102,-73.960336804,40.8109494,-73.9634,member
97702F7810BF9E8A,classic_bike,2022-07-30 14:44:28,2022-07-30 15:04:05,6 Ave & Walker St,5430.1,W 22 St & 10 Ave,6306.06,40.7197920901383,-74.0052238852195,40.74691959,-74.00451887,member
45318FC194DFC86A,classic_bike,2022-05-25 16:43:15,2022-05-25 17:10:11,Mercer St & Spring St,5532.01,Duffield St & Willoughby St,4596.05,40.72362738,-73.99949601,40.69221589,-73.9842844,member
5EDE907873E9B9C5,electric_bike,2022-07-22 16:07:45,2022-07-22 16:20:28,Broadway & Roebling St,5125.07,Greenpoint Ave & Manhattan Ave,5785.05,40.70924826276157,-73.96063148975372,40.73026,-73.95394,casual
1040E6C8FD87B544,electric_bike,2022-05-25 19:01:01,2022-05-25 19:03:01,E 85 St & 3 Ave,7212.05,E 80 St & 2 Ave,7121.02,40.77801203,-73.95407149,40.77391390238118,-73.9543953537941,member
D15C6F7D6AD285A2,classic_bike,2022-09-09 14:51:32,2022-09-09 15:03:36,Pier 40 - Hudson River Park,5696.03,West St & Liberty St,5184.08,40.7277140777778,-74.01129573583603,40.711444,-74.014847,casual
8EF6C32F144F0330,classic_bike,2022-09-23 00:19:27,2022-09-23 00:26:50,Riverside Dr & W 148 St,8054.04,St. Nicholas Ave & W 126 St,7756.1,40.829172969,-73.950313687,40.8114323,-73.9518776,casual
F9762A41A472B749,classic_bike,2022-03-07 08:56:56,2022-03-07 09:07:32,2 Ave & E 104 St,7436.11,E 75 St & 3 Ave,6991.12,40.7892105,-73.94370784,40.77112927,-73.95772297,member
70FDB4763B06E950,classic_bike,2022-10-03 17:32:25,2022-10-03 17:49:59,Carlton Ave & Dean St,4199.12,6 Ave & 12 St,3803.05,40.6809741,-73.9710097,40.6663181,-73.9854617,member
AE2ED44655F19A59,electric_bike,2022-07-22 14:00:35,2022-07-22 14:14:04,Forsyth St & Broome St,5453.05,S 3 St & Bedford Ave,5235.05,40.71893904,-73.99266288,40.71260486,-73.96264403,member
B7D6B10604AD801B,classic_bike,2022-08-15 01:08:02,2022-08-15 01:17:18,W 17 St & 8 Ave,6148.02,Washington Pl & 6 Ave,5838.09,40.74177603,-74.00149746,40.73224119,-74.00026394,casual
E4B76C42E0426096,classic_bike,2022-06-11 18:23:39,2022-06-11 18:29:33,University Pl & E 14 St,5905.14,Gansevoort St & Hudson St,6072.14,40.734814,-73.992085,40.73944820130404,-74.00507032871246,member
494B1323BF4AD055,classic_bike,2022-01-26 17:14:53,2022-01-26 17:22:39,Central Park West & W 68 St,7079.06,7 Ave & Central Park South,6912.01,40.7734066,-73.97782542,40.7667405590595,-73.9790689945221,casual
64D2D64FD2137D24,electric_bike,2022-06-07 12:53:56,2022-06-07 13:09:23,N 6 St & Bedford Ave,5379.1,Greene Ave & Throop Ave,4510.04,40.71745169,-73.95850939,40.6894932,-73.942061,casual
A445D6448A8BB37E,classic_bike,2022-11-01 18:32:12,2022-11-01 18:46:55,Grand St & Havemeyer St,5267.08,Franklin St & Dupont St,5944.01,40.713008881,-73.95718348,40.73564,-73.95866,member
DF610160BFCD3917,classic_bike,2022-09-20 19:46:55,2022-09-20 20:08:01,W 54 St & 11 Ave,6955.05,W 13 St & 5 Ave,5947.04,40.768290043,-73.992645383,40.735445,-73.99431,member
E84C3EA81424316F,classic_bike,2022-03-10 16:05:29,2022-03-10 16:19:11,E 7 St & Ave C,5545.01,Mercer St & Spring St,5532.01,40.72412944090093,-73.97901266813278,40.72362738,-73.99949601,casual
ECC3C00E8CA7092D,classic_bike,2022-06-03 13:18:51,2022-06-03 14:01:19,Central Park North & Adam Clayton Powell Blvd,7617.07,Central Park North & Adam Clayton Powell Blvd,7617.07,40.799484,-73.955613,40.799484,-73.955613,member
854F3FA445E32190,classic_bike,2022-12-02 06:48:53,2022-12-02 06:49:10,Greenwich St & Hubert St,5470.10,Greenwich St & Hubert St,5470.10,40.721105814,-74.009884,40.721319,-74.010065,member
682F8DCC9A8B5F58,electric_bike,2022-11-23 06:55:09,2022-11-23 06:58:10,W 42 St & 8 Ave,6602.05,W 36 St & 9 Ave,6569.07,40.7575699,-73.99098507,40.75462324029105,-73.99516761302948,member
2446EAE809DA31E0,classic_bike,2022-11-30 08:16:07,2022-11-30 08:39:11,Myrtle Ave & St Edwards St,4659.02,Broadway & W 37 St,6441.02,40.693285704,-73.977074385,40.75172632,-73.98753523,member
0A591C80949A0ED1,classic_bike,2022-10-11 11:50:16,2022-10-11 12:01:11,20 Ave & 31 St,7256.01,8 St & Astoria Blvd,7068.07,40.780120373,-73.906852126,40.7725996921817,-73.93266275525093,casual
2652715F3C93703C,electric_bike,2022-12-20 16:21:08,2022-12-20 16:25:31,W 24 St & 7 Ave,6257.03,10 Ave & W 28 St,6459.04,40.74487634,-73.99529885,40.75066386,-74.00176802,casual
59E14E4AD8DDBE2B,classic_bike,2022-07-12 09:29:00,2022-07-12 09:37:17,6 Ave & W 34 St,6364.10,Hudson Blvd E & W 36 St,6611.05,40.74964,-73.98805,40.75630628938069,-73.99951145061095,member
2E1E5BD0E11AA354,classic_bike,2022-12-27 17:53:44,2022-12-27 18:00:50,W 29 St & 9 Ave,6416.06,W 15 St & 7 Ave,6030.06,40.7500727,-73.99839279,40.73935542,-73.99931783,member
336E9566425929FC,classic_bike,2022-08-20 14:16:23,2022-08-20 14:26:42,DeKalb Ave & Franklin Ave,4528.01,Washington Park,4546.05,40.69064807082943,-73.95746178925037,40.6917823,-73.9737299,casual
FDF04CE982AAFD99,classic_bike,2022-01-31 19:06:21,2022-01-31 19:17:16,W 42 St & 6 Ave,6517.08,Broadway & W 56 St,6847.02,40.75492,-73.98455,40.7652654,-73.98192338,member
A9B488F566BD8272,electric_bike,2022-06-18 12:05:17,2022-06-18 12:12:03,Windsor Pl & Howard Pl,3579.04,Flatbush Ave & Ocean Ave,3704.04,40.65949055893896,-73.98013919591904,40.663657,-73.963014,casual
421BCEF4CF790E5B,classic_bike,2022-12-13 13:21:19,2022-12-13 13:28:22,Barrow St & Hudson St,5805.05,W 20 St & 8 Ave,6224.05,40.73172428,-74.00674436,40.74345335,-74.00004031,member
ED64B42E754C85F0,classic_bike,2022-09-23 07:24:37,2022-09-23 07:30:56,E 40 St & 5 Ave,6474.11,W 31 St & 7 Ave,6331.01,40.752062307,-73.9816324043,40.749156,-73.9916,member
C8BE7DB4D8A549CE,classic_bike,2022-03-27 14:08:30,2022-03-27 14:28:19,Bleecker St & Crosby St,5679.08,Gansevoort St & Hudson St,6072.14,40.72615604980408,-73.99510189890862,40.73944820130404,-74.00507032871246,member
B5B615088458A648,electric_bike,2022-11-01 19:13:13,2022-11-01 19:22:38,S 4 St & Rodney St,5156.05,Montrose Ave & Bushwick Ave,5068.02,40.70934,-73.95608,40.70767788,-73.94016171,member
5CF3F87E5A05F6FF,classic_bike,2022-10-11 11:14:28,2022-10-11 11:20:49,Tinton Ave & E 165 St,7991.01,St Mary's St & Jackson Ave,7737.06,40.824911118,-73.902386904,40.808891,-73.91081,member
8CFB7699D9849D49,classic_bike,2022-09-20 21:23:37,2022-09-20 21:31:04,E 74 St & 1 Ave,6953.08,E 88 St & 1 Ave,7235.13,40.7689738,-73.95482273,40.778301,-73.9488134,member
12D4F5450EA9303E,classic_bike,2022-01-05 13:54:22,2022-01-05 13:58:46,6 Ave & 21 St,3628.11,4 Ave & 9 St,3955.05,40.66016,-73.990974,40.6705135,-73.98876585,member
77E15B228CA1F9C9,classic_bike,2022-10-26 19:11:58,2022-10-26 19:31:43,E 47 St & 1 Ave,6498.09,E 88 St & 1 Ave,7235.13,40.75206862,-73.96784384,40.778301,-73.9488134,member
50381A4C49340C98,classic_bike,2022-09-08 09:31:56,2022-09-08 09:45:51,Forsyth St\t& Grand St,5382.07,Front St & Jay St,4895.03,40.71779817737835,-73.99316132068634,40.702461,-73.986842,member
4F2B72A631E7F52D,classic_bike,2022-09-19 19:42:27,2022-09-19 19:47:40,Lexington Ave & E 26 St,6089.08,E 19 St & 3 Ave,5938.01,40.741459,-73.983293,40.73624527,-73.98473765,member
21D132670967F2BB,classic_bike,2022-12-07 18:46:32,2022-12-07 18:52:09,W 84 St & Broadway,7409.08,W 76 St & Columbus Ave,7281.09,40.7867947,-73.977112,40.7801839724239,-73.97728532552719,member
E4F54F5FE6F1F23C,electric_bike,2022-03-08 08:03:57,2022-03-08 08:05:41,Jay St & York St,4895.09,Front St & Gold St,4927.04,40.70140317257725,-73.98672670125961,40.70224,-73.982578,member
2C16684186D0FBB6,classic_bike,2022-08-20 16:16:20,2022-08-20 16:17:07,Broadway & W 29 St,6289.06,,,40.746212721,-73.988660812,40.75,-73.99,member
2240A49C265BFDCB,classic_bike,2022-09-20 18:38:39,2022-09-20 18:43:49,W 44 St & 5 Ave,6551.02,W 41 St & 8 Ave,6602.03,40.75500254,-73.98014437,40.75640548,-73.9900262,member
DA60B192B61504C0,electric_bike,2022-05-08 19:08:29,2022-05-08 19:13:37,Greene St & Prince St,5602.06,Christopher St & Greenwich St,5847.01,40.72511734422387,-73.99930492043495,40.73291553,-74.00711384,casual
6B7EAE3FA3916E83,classic_bike,2022-10-16 13:28:13,2022-10-16 13:51:14,Underhill Ave & Lincoln Pl,4042.08,Lewis Ave & Madison St,4425.02,40.673889518,-73.967167616,40.686312,-73.935775,member
8608269E7AB5A1C7,classic_bike,2022-05-23 07:33:07,2022-05-23 07:38:35,46 St & 6 Ave,3161.02,57 St & 4 Ave,3093.07,40.645977259,-74.00563693,40.642622,-74.016866,member
080841574ED3CBD9,classic_bike,2022-11-08 11:37:55,2022-11-08 13:48:35,30 St & 4 Ave,3564.04,Rogers Ave & Sterling St,3696.05,40.657743,-74.001141,40.6630619,-73.9538746,casual
808B46339485E7ED,classic_bike,2022-05-04 20:19:59,2022-05-04 20:27:43,31 St & Newtown Ave,6923.20,28 St & 36 Ave,6614.01,40.7675487799971,-73.9209334552288,40.757186,-73.932719,casual
4DAE662A936A801F,classic_bike,2022-01-03 13:00:29,2022-01-03 13:05:31,Pier 40 - Hudson River Park,5696.03,Duane St & Hudson St,5359.12,40.7277140777778,-74.01129573583603,40.71703,-74.00925,member
879B1FD05D8E08DA,classic_bike,2022-01-11 19:04:23,2022-01-11 19:11:03,Carmine St & 6 Ave,5763.03,E 4 St & 2 Ave,5593.04,40.73038599,-74.00214988,40.7262807,-73.98978041,member
4BCC69C4DBB95610,classic_bike,2022-07-03 09:59:44,2022-07-03 10:11:05,S 4 St & Rodney St,5156.05,Banker St & Meserole Ave,5633.04,40.70934,-73.95608,40.72606,-73.95621,member
D2416FAE497C8E91,classic_bike,2022-12-17 15:03:07,2022-12-17 15:15:30,43 Ave & 42 St,6251.06,35 St & Broadway,6750.16,40.74534682580983,-73.9219419658184,40.760339,-73.9222427,casual
6DC2E59D5811ED06,classic_bike,2022-11-08 01:32:19,2022-11-08 01:39:47,Lincoln Ave & E 138 St,7744.06,Brook Ave & E 157 St,7935.07,40.810893,-73.927311,40.820713,-73.911759,casual
D235BDCF5B49B0E0,classic_bike,2022-07-13 14:31:34,2022-07-13 14:31:35,Washington Ave & E 163 St,7995.04,Washington Ave & E 163 St,7995.04,40.824,-73.91089,40.824,-73.91089,member
6DA5CA0447D53D27,classic_bike,2022-03-16 18:12:32,2022-03-16 18:14:41,E 5 St & Ave A,5626.06,E 3 St & 1 Ave,5553.03,40.72479007746337,-73.98430064320564,40.72467721,-73.98783413,member
46BA623EF0837E38,classic_bike,2022-01-02 20:42:26,2022-01-02 20:54:10,Greenwich Ave & Charles St,5914.08,Suffolk St & Stanton St,5445.02,40.735238,-74.000271,40.72066442,-73.98517977,member
B13FFA4D7C9EB41E,classic_bike,2022-09-20 10:49:17,2022-09-20 11:00:06,E 72 St & York Ave,6889.12,Amsterdam Ave & W 73 St,7260.09,40.766899824,-73.953330517,40.77966809007312,-73.98093044757842,member
3F1EE26F3DBC96F8,classic_bike,2022-09-15 21:20:08,2022-09-15 21:55:18,Carroll St & 6 Ave,4019.06,S 4 St & Rodney St,5156.05,40.6740886,-73.9787282,40.70934,-73.95608,casual
115390D8005E7784,classic_bike,2022-08-09 07:41:01,2022-08-09 07:45:53,E 31 St & 3 Ave,6239.08,W 31 St & 7 Ave,6331.01,40.74394314,-73.97966069,40.749156,-73.9916,casual
B7559209908FE14D,classic_bike,2022-03-07 06:57:53,2022-03-07 07:17:59,Roebling St & N 4 St,5267.09,Central Ave & Himrod St,4713.01,40.71469,-73.95739,40.69676,-73.92302,member
7C5A1B2D6CD5B80C,classic_bike,2022-10-11 19:15:13,2022-10-11 19:20:46,E 63 St & 3 Ave,6830.02,1 Ave & E 78 St,7020.09,40.763954,-73.9646,40.77140426,-73.9535166,member
6E23AAA1258C75E1,classic_bike,2022-12-30 16:12:16,2022-12-30 16:20:15,MacDougal St & Washington Sq,5797.01,Lafayette St & Jersey St,5561.06,40.732523561,-73.99838388,40.72456089,-73.99565293,member
EBB63D80E69BF0E8,classic_bike,2022-11-20 17:46:00,2022-11-20 17:48:15,Monroe St & Classon Ave,4336.01,Lafayette Ave & Classon Ave,4452.01,40.684574842,-73.958827972,40.68900443,-73.96023854,member
3D456CE91AF17782,electric_bike,2022-09-30 13:50:01,2022-09-30 15:50:56,Broadway & W 58 St,6948.1,W 36 St & 7 Ave,6483.06,40.76695317,-73.98169333,40.752149,-73.989539,casual
8678DF738FDD85A1,classic_bike,2022-08-09 12:28:36,2022-08-09 12:33:23,Market St & Henry St,5270.09,Division St & Bowery,5270.08,40.71310702305908,-73.99446353316307,40.714193,-73.996732,member
5128EC50AEABA5A6,classic_bike,2022-07-03 08:34:53,2022-07-03 08:39:07,W 55 St & 6 Ave,6809.09,E 59 St & Madison Ave,6801.01,40.763189,-73.978434,40.76350532,-73.97109243,member
3DD5CB67DBD4E3E7,classic_bike,2022-09-16 18:18:04,2022-09-16 18:50:28,12 Ave & W 125 St,7886.02,Pinehurst Ave & W 187 St,8458.03,40.818299,-73.960405,40.855331,-73.937878,member
A9C5DEDAE5583427,electric_bike,2022-03-11 22:03:46,2022-03-11 22:15:17,Christopher St & Greenwich St,5847.01,1 Ave & E 18 St,5854.09,40.73291553,-74.00711384,40.73381219196632,-73.98054420948029,member
622128F5DE4FD9AE,classic_bike,2022-06-29 19:48:08,2022-06-29 19:58:14,Greenwich St & Hubert St,5470.1,Christopher St & Greenwich St,5847.01,40.721319,-74.010065,40.73291553,-74.00711384,member
31F5AD8F0CC44201,classic_bike,2022-08-27 14:34:49,2022-08-27 14:47:32,10 Ave & W 28 St,6459.04,W 24 St & 7 Ave,6257.03,40.750547171,-74.001854062,40.74487634,-73.99529885,member
66EF4AB5CE5E6715,classic_bike,2022-12-08 14:37:04,2022-12-08 15:10:18,Centre St & Worth St,5279.03,E 48 St & 3 Ave,6541.03,40.71494807,-74.00234482,40.7546011026,-73.971878855,casual
ED5C327CE29C8C40,classic_bike,2022-07-19 16:13:09,2022-07-19 16:18:45,Smith St & 9 St,4077.04,Columbia St & Lorraine St,4013.08,40.6746957,-73.99785768,40.6747055,-74.0075572,casual
FC96F1256983C7B8,classic_bike,2022-10-27 17:15:16,2022-10-27 17:18:20,E 22 St & 2 Ave,5971.09,E 25 St & 1 Ave,6004.07,40.73716919369882,-73.98122549057007,40.7381765,-73.97738662,casual
7B633DD6489209F1,classic_bike,2022-11-22 10:37:17,2022-11-22 10:40:46,E 98 St & Park Ave,7443.17,E 103 St & Lexington Ave,7463.09,40.787775159,-73.95207727,40.7903051,-73.94755757,member
27C88AD52373C5DD,classic_bike,2022-06-01 08:40:26,2022-06-01 08:46:20,E 7 St & Ave C,5545.01,Cooper Square & Astor Pl,5712.03,40.72412944090093,-73.97901266813278,40.72951496224949,-73.99075269699097,member
4BC7AA5066DD91D9,classic_bike,2022-11-13 17:22:45,2022-11-13 18:06:13,Rivington St & Chrystie St,5453.01,Sheridan Ave & E 168 St,8160.03,40.721174955,-73.991928577,40.835334,-73.9154,member
0A4EF1A440634074,docked_bike,2022-09-28 13:45:44,2022-09-28 14:13:50,Norfolk St & Broome St,5374.01,Norfolk St & Broome St,5374.01,40.717227,-73.988021,40.717227,-73.988021,casual
926FF834F5FE9A0A,classic_bike,2022-07-26 21:06:27,2022-07-26 21:12:02,E 11 St & 3 Ave,5788.16,E 11 St & Avenue B,5659.11,40.73127,-73.98849,40.72746420692392,-73.97950418293476,casual
5AB56CAF6F114CE4,electric_bike,2022-03-21 19:50:52,2022-03-21 20:01:09,Spruce St & Nassau St,5137.1,Cooper Square & Astor Pl,5712.03,40.71146364,-74.00552427,40.72951496224949,-73.99075269699097,member
2B7D9A7DB3032331,classic_bike,2022-01-20 14:57:44,2022-01-20 14:59:43,Hudson St & Reade St,5359.1,Harrison St & Hudson St,5400.05,40.71625008,-74.0091059,40.71870987,-74.0090009,member
0038ABA6C206F714,electric_bike,2022-01-31 08:05:20,2022-01-31 08:36:07,Perry St & Bleecker St,5922.07,Banker St & Meserole Ave,5633.04,40.73535398,-74.00483091,40.72606,-73.95621,member
094996895FCD5D30,electric_bike,2022-03-25 13:17:45,2022-03-25 13:34:25,E 51 St & 1 Ave,6532.06,4 Ave & E 12 St,5788.15,40.75455731,-73.96592976,40.732647,-73.99011,member
C0AEF88E24F99305,classic_bike,2022-05-24 09:14:53,2022-05-24 09:20:34,Nagle Ave & Ellwood St,8528.05,10 Ave & W 207 St,8613.09,40.860152125,-73.928524494,40.864632,-73.918598,member
1F0895F58C7CB647,classic_bike,2022-07-01 23:18:25,2022-07-01 23:24:39,West Drive & Prospect Park West,3651.04,Prospect Ave & Vanderbilt St,3426.02,40.6610633719006,-73.97945255041122,40.653368,-73.976291,casual
197EE8CD25320CA2,classic_bike,2022-09-02 20:19:09,2022-09-02 20:25:13,W 63 St & Broadway,7052.01,W 55 St & 6 Ave,6809.09,40.77163851,-73.98261428,40.763189,-73.978434,member
514C7021343D6E67,electric_bike,2022-08-28 15:14:25,2022-08-28 15:16:44,43 St & Broadway,6670.03,43 St & 35 Ave,6520.06,40.7577284,-73.9166368,40.754139,-73.919543,member
5AFD4C47AA5B8EE5,classic_bike,2022-07-09 11:17:09,2022-07-09 11:20:21,Underhill Ave & Lincoln Pl,4042.08,7 Ave & Park Pl,4125.07,40.6740123,-73.9671457,40.6776147,-73.97324283,member
B6AABDD93CDC5B3D,classic_bike,2022-07-09 00:43:58,2022-07-09 00:57:23,W 15 St & 6 Ave,5989.02,E 31 St & 3 Ave,6239.08,40.738046142482766,-73.99642959237099,40.74394314,-73.97966069,member
24D506AF878CE1C4,classic_bike,2022-08-08 17:42:12,2022-08-08 17:48:12,W 163 St & Riverside Dr,8210.01,Riverside Dr & W 153 St,8108.02,40.839278,-73.945446,40.832164,-73.949702,member
E94A4711E904F632,classic_bike,2022-07-10 16:20:25,2022-07-10 16:32:27,6 Ave & W 34 St,6364.10,W 20 St & 10 Ave,6306.01,40.74964,-73.98805,40.745686,-74.005141,member
A0258B0A14681F25,classic_bike,2022-08-30 08:33:22,2022-08-30 08:39:48,W 12 St & Hudson St,5997.1,8 Ave & W 31 St,6450.05,40.73752993301071,-74.00558933615685,40.7505853470215,-73.9946848154068,member
CFD3E45AB94ACCEE,classic_bike,2022-07-21 15:58:25,2022-07-21 16:08:20,Broadway & E 21 St,6098.1,E 33 St & 1 Ave,6197.08,40.73988840858996,-73.98958593606949,40.74322681432173,-73.97449783980846,member
EFB44721CB63BD7E,classic_bike,2022-06-10 17:22:14,2022-06-10 17:29:48,S Portland Ave & Hanson Pl,4354.05,Clermont Ave & Park Ave,4692.01,40.68539567,-73.97431458,40.69573398,-73.97129668,member
A3E5120D16FD6B62,classic_bike,2022-09-15 16:27:59,2022-09-15 16:32:01,University Pl & E 14 St,5905.14,4 Ave & E 12 St,5788.15,40.734814,-73.992085,40.732647,-73.99011,member
799B73A1C7410989,electric_bike,2022-06-05 14:06:20,2022-06-05 14:09:52,Longwood Ave & Southern Blvd,7849.10,Lafayette Ave & Hunts Point Ave,7883.06,40.816343,-73.896447,40.816567,-73.888161,member
AD6E292A6A965E7F,classic_bike,2022-09-26 21:07:18,2022-09-26 21:10:14,Forsyth St & Broome St,5453.05,Forsyth St & Broome St,5453.05,40.71893904,-73.99266288,40.71893904,-73.99266288,casual
1212D9C133811FC9,classic_bike,2022-03-19 11:57:10,2022-03-19 13:06:34,W 55 St & 6 Ave,6809.09,W 55 St & 6 Ave,6809.09,40.763189,-73.978434,40.763189,-73.978434,casual
E1B7489C910EEF07,electric_bike,2022-01-28 14:30:27,2022-01-28 14:33:00,Grand St & Samuel Dickstein Plaza,5335.07,Madison St & Montgomery St,5262.09,40.71511871996496,-73.98417055606842,40.713126,-73.984844,member
3A64E1B26E9F5F19,classic_bike,2022-03-13 12:17:11,2022-03-13 12:19:15,E 88 St & 1 Ave,7235.13,1 Ave & E 94 St,7286.05,40.778301,-73.9488134,40.7817212,-73.94594,member
9FD31FFF5AEB512D,electric_bike,2022-11-15 12:16:27,2022-11-15 12:22:16,E 13 St & 2 Ave,5820.08,W 13 St & 5 Ave,5947.04,40.73153937464073,-73.9853024482727,40.735445,-73.99431,casual
7DE79EEEE9A0A33A,classic_bike,2022-11-13 13:21:15,2022-11-13 13:34:29,10 Ave & W 28 St,6459.04,W 13 St & 7 Ave,6030.04,40.75066386,-74.00176802,40.73781509,-73.99994661,casual
B6B1221A9D26F9B2,classic_bike,2022-12-24 15:20:03,2022-12-24 15:24:31,E 48 St & 5 Ave,6626.01,E 40 St & 5 Ave,6474.11,40.75724567911726,-73.97805914282799,40.752062307,-73.9816324043,member
77552138E7770C0C,classic_bike,2022-11-08 07:06:20,2022-11-08 07:16:00,W 22 St & 8 Ave,6224.03,Barrow St & Hudson St,5805.05,40.74475148,-73.99915362,40.73172428,-74.00674436,member
A5E4F14AE68502D7,classic_bike,2022-12-04 17:49:40,2022-12-04 17:52:50,Sterling Pl & Bedford Ave,3993.03,Grand Ave & Bergen St,4190.06,40.672686696,-73.954107285,40.678045,-73.962408,member
73DF3AC491E2B8E2,electric_bike,2022-09-22 15:25:51,2022-09-22 15:41:44,E Fordham Rd & Webster Ave,8582.09,Sherman Ave & E 166 St,8072.06,40.861748,-73.89105,40.83130549267296,-73.91744792461395,member
4B18D95CC90DC37D,classic_bike,2022-06-21 21:06:35,2022-06-21 21:13:25,University Pl & E 8 St,5755.14,6 Ave & Canal St,5500.07,40.73143724085228,-73.99490341544151,40.72243797,-74.00566443,member
F57634D38CEFCE6B,classic_bike,2022-06-29 09:05:55,2022-06-29 09:22:08,E 84 St & Park Ave,7243.04,W 52 St & 6 Ave,6740.01,40.77862688,-73.95772073,40.76132983124814,-73.97982001304626,member
295D94CFFA451F8D,classic_bike,2022-08-19 18:40:27,2022-08-19 18:41:21,Withers St & Kingsland Ave,5362.08,Frost St & Debevoise Ave,5433.04,40.71773,-73.94051,40.71882,-73.93948,member
E643B7BD13589001,classic_bike,2022-05-22 23:07:07,2022-05-22 23:15:59,6 Ave & W 33 St,6364.07,W 56 St & 6 Ave,6809.07,40.74901271,-73.98848395,40.76340613,-73.97722479,member
24CEFF1F6BE182AE,electric_bike,2022-11-09 18:13:42,2022-11-09 18:19:29,W 51 St & Rockefeller Plaza,6700.14,E 51 St & 2 Ave,6575.03,40.75973805251143,-73.97811613976955,40.755293,-73.967641,member
0D9039F92B6B200F,classic_bike,2022-08-15 10:48:34,2022-08-15 11:06:13,12 Ave & W 40 St,6765.01,Spring St & Hudson St,5653.12,40.76087502,-74.00277668,40.72583996792375,-74.0076532959938,member
3C5A54378CBB1ED5,classic_bike,2022-11-30 07:59:11,2022-11-30 08:08:14,Broadway & E 21 St,6098.1,E 25 St & 1 Ave,6004.07,40.740187407,-73.98960793,40.7381765,-73.97738662,member
1BBD3050892B8A0E,classic_bike,2022-11-13 10:24:36,2022-11-13 10:44:41,Jay St & Tech Pl,4710.06,Stagg St & Union Ave,5117.05,40.695065,-73.987167,40.70877084,-73.95095259,casual
237A8886A24ED7C1,classic_bike,2022-10-06 18:14:51,2022-10-06 18:29:58,Metropolitan Ave & Meeker Ave,5300.05,India St & Manhattan Ave,5826.02,40.71413311,-73.95234386,40.73232194,-73.9550858,member
5B3F1BCECEB6AEDB,electric_bike,2022-10-14 17:21:07,2022-10-14 17:29:44,Washington Park,4546.05,Front St & Jay St,4895.03,40.6917823,-73.9737299,40.702461,-73.986842,casual
F43F5A18DCD26B63,classic_bike,2022-10-09 12:47:24,2022-10-09 12:54:13,Lafayette St & Jersey St,5561.06,Orchard St & Grand St,5343.11,40.72456089,-73.99565293,40.717318403855785,-73.99067759513855,member
FB38A721345EB42A,electric_bike,2022-01-20 16:24:45,2022-01-20 16:42:38,Popham Ave & W 174 St,8348.02,St. Nicholas Ave & W 126 St,7756.10,40.847746,-73.922079,40.8114323,-73.9518776,member
69DD1DD394A0947E,electric_bike,2022-01-17 13:36:43,2022-01-17 13:43:16,E 25 St & 2 Ave,6046.02,W 27 St & 7 Ave,6247.06,40.73912601,-73.97973776,40.746647,-73.993915,member
B318B0BC71EA3644,classic_bike,2022-12-01 15:45:18,2022-12-01 15:56:25,W 42 St & Dyer Ave,6644.07,11 Ave & W 59 St,7059.01,40.75898481399634,-73.99379968643188,40.77149671054441,-73.99046033620834,member
BF25985016B9471A,classic_bike,2022-10-12 15:12:31,2022-10-12 15:13:33,Central Park S & 6 Ave,6876.04,Central Park S & 6 Ave,6876.04,40.76590936,-73.97634151,40.76590936,-73.97634151,casual
AD8D45610A533954,electric_bike,2022-12-06 14:35:33,2022-12-06 14:59:28,Carroll St & Smith St,4225.14,36 St & 4 Ave,3420.01,40.680611,-73.99475825,40.654144,-74.00422,member
21F06F81DB06788B,classic_bike,2022-03-17 07:56:07,2022-03-17 08:11:00,W 50 St & 9 Ave,6854.05,6 Ave & W 45 St,6593.15,40.76360467795863,-73.98917958140373,40.756951,-73.982631,member
7F0B7AFF8554BECD,classic_bike,2022-07-14 09:40:43,2022-07-14 09:42:24,W 56 St & 8 Ave,6884.03,Broadway & W 53 St,6779.05,40.765959181657976,-73.98313522338867,40.76344058,-73.98268129,member
8D0B350E5A8E6FE1,electric_bike,2022-07-15 18:22:06,2022-07-15 18:32:10,Sterling St & Bedford Ave,3665.06,Prospect Pl & Underhill Ave,4116.08,40.6627059,-73.9569115,40.6769694,-73.96579,member
14733D7A14FEC7A0,classic_bike,2022-05-12 07:18:59,2022-05-12 07:20:20,24 Ave & 29 St,7119.04,31 St & Hoyt Ave N,7018.01,40.7729,-73.916142,40.7711528,-73.9170074,member
4F888CF90B76D1C0,classic_bike,2022-06-03 17:04:23,2022-06-03 17:36:40,Flatbush Ave & Ocean Ave,3704.04,Carroll St & 5 Ave,4060.09,40.663657,-73.963014,40.6751622,-73.9814832,member
6697911708A685AC,electric_bike,2022-08-25 20:07:02,2022-08-25 20:24:17,W 31 St & 7 Ave,6331.01,E 65 St & 2 Ave,6860.12,40.749156,-73.9916,40.76471851944339,-73.96222069859505,member
39310ECA256BE6A6,classic_bike,2022-07-22 20:07:39,2022-07-22 20:12:15,3 Ave & E 174 St,8241.07,3 Ave & E 170 St,8137.06,40.84224,-73.8985,40.834857,-73.903743,member
7EE3AEBE7150C83C,classic_bike,2022-08-23 16:40:18,2022-08-23 16:54:15,E 15 St & 3 Ave,5863.07,8 Ave & W 33 St,6450.12,40.7340343,-73.986908197,40.751551,-73.993934,member
AC06B021700D6636,electric_bike,2022-05-16 15:50:09,2022-05-16 16:12:44,Broadway & E 14 St,5905.12,W 54 St & 11 Ave,6955.05,40.73454567,-73.99074142,40.768333,-73.992573,member
1F10B2FC21528030,classic_bike,2022-12-20 06:46:35,2022-12-20 06:52:41,E 44 St & Lexington Ave,6464.09,FDR Drive & E 35 St,6230.04,40.752643,-73.974996,40.744219,-73.97121214,member
CD703E3A0D3A7AAF,classic_bike,2022-07-04 14:35:07,2022-07-04 14:50:48,Greenwich St & Perry St,5922.04,Broadway & E 21 St,6098.10,40.73498,-74.00697,40.73988840858996,-73.98958593606949,casual
0C369FE6B92B51B6,classic_bike,2022-10-25 10:21:00,2022-10-25 10:28:30,Sands St Gate,4812.04,Willoughby St & Fleet St,4628.05,40.699569,-73.979827,40.69196566,-73.9813018,member
F03394C805709E17,classic_bike,2022-05-24 20:12:35,2022-05-24 20:30:52,Barrow St & Hudson St,5805.05,Spring St & Hudson St,5653.12,40.73172428,-74.00674436,40.72583996792375,-74.0076532959938,member
4A66233C8615E4D2,classic_bike,2022-01-26 13:16:12,2022-01-26 13:18:10,8 Ave & W 52 St,6816.07,Broadway & W 53 St,6779.05,40.76370739,-73.9851615,40.76344058,-73.98268129,member
B1D94F0C1F98357B,classic_bike,2022-03-19 09:12:22,2022-03-19 09:13:26,2 Ave & E 31 St,6197.02,2 Ave & E 31 St,6197.02,40.74290902,-73.97706058,40.74290902,-73.97706058,member
C5B846D2AA578CA2,classic_bike,2022-08-29 08:55:07,2022-08-29 09:03:34,Ave A & E 11 St,5703.13,Lexington Ave & E 29 St,6164.09,40.72854745023944,-73.98175925016403,40.74311555376486,-73.98215353488922,member
11B18FBF95296F89,classic_bike,2022-10-21 15:10:53,2022-10-21 15:14:58,45 Rd & 11 St,6319.01,Jackson Ave & 46 Rd,6203.02,40.74708586,-73.94977234,40.74524768,-73.94733276,member
07B75F09709FC4E7,classic_bike,2022-06-22 15:57:54,2022-06-22 16:07:26,W 42 St & 6 Ave,6517.08,7 Ave & Central Park South,6912.01,40.75492,-73.98455,40.7667405590595,-73.9790689945221,member
D9DA8F613832EE6A,electric_bike,2022-05-26 13:34:49,2022-05-26 13:38:48,2 Ave & E 99 St,7386.1,E 106 St & 2 Ave,7482.15,40.7862586,-73.94552579,40.790586067792006,-73.94195795059204,member
7E3342ABD930E374,classic_bike,2022-07-04 17:41:01,2022-07-04 17:48:50,Crescent St & 35 Ave,6688.01,21 St & 43 Ave,6395.01,40.7596276,-73.9321455,40.75052534,-73.94594845,casual
F4D633C75F425945,classic_bike,2022-09-23 10:31:21,2022-09-23 10:41:30,West St & Liberty St,5184.08,Broadway & Battery Pl,4962.01,40.711444,-74.014847,40.70463334,-74.01361706,casual
7FE415B7E69F4372,classic_bike,2022-05-25 16:01:58,2022-05-25 16:37:14,Fulton St & Adams St,4637.06,Marcus Garvey Blvd & Macon St,4278.03,40.692621827,-73.989552379,40.682601,-73.938037,member
99CD2854F10AE0AE,classic_bike,2022-10-26 17:45:04,2022-10-26 17:46:16,W 47 St & 10 Ave,6824.07,W 50 St & 10 Ave,6890.06,40.76269882,-73.99301222,40.76473420006519,-73.99194359779358,member
1FE7D845B58D5123,classic_bike,2022-05-17 18:39:57,2022-05-17 18:42:22,10 St & 5 Ave,3842.08,6 Ave & 12 St,3803.05,40.6686273,-73.98700053,40.6663181,-73.9854617,member
7803105FA2BD4833,classic_bike,2022-06-17 20:14:38,2022-06-17 20:30:20,Johnson St & Gold St,4668.08,Pioneer St & Van Brunt St,4169.04,40.694407225,-73.983518839,40.679043,-74.011169,member
C67FC96C695BB80B,electric_bike,2022-07-21 19:02:01,2022-07-21 19:18:57,Sullivan Pl & Bedford Ave,3736.04,Berkeley Pl & 7 Ave,4051.01,40.6642406,-73.9574686,40.675146838709786,-73.97523209452629,member
7F51E9D90EA6D485,classic_bike,2022-07-30 14:34:28,2022-07-30 14:38:57,W 29 St & 9 Ave,6416.06,9 Ave & W 18 St,6190.08,40.7500727,-73.99839279,40.74317449,-74.00366443,member
E4831C35ED8D08EE,electric_bike,2022-08-17 06:25:37,2022-08-17 06:30:39,Kent Ave & N 7 St,5489.03,Metropolitan Ave & Meeker Ave,5300.05,40.72036775298455,-73.96165072917938,40.71413311,-73.95234386,member
169AB027156882B5,classic_bike,2022-06-24 08:40:05,2022-06-24 08:42:08,1 Pl & Clinton St,4193.14,Clinton St & Union St,4266.03,40.6809591,-73.99905709,40.6831164,-73.99785267,member
51183374A06DEF12,electric_bike,2022-10-04 21:26:52,2022-10-04 21:33:55,Berkeley Pl & 7 Ave,4051.01,St Johns Pl & Washington Ave,4001.09,40.675146838709786,-73.97523209452629,40.6737236,-73.9631611,member
D05C80D8AEF4A1F3,classic_bike,2022-10-22 13:17:21,2022-10-22 13:19:41,Old Slip & South St,4993.13,South St & Gouverneur Ln,4953.04,40.70336686695866,-74.007867872715,40.70355377,-74.00670227,member
A44F2253980DDD72,classic_bike,2022-08-03 19:17:29,2022-08-03 19:17:45,W 43 St & 10 Ave,6756.01,W 43 St & 10 Ave,6756.01,40.76009437,-73.99461843,40.76009437,-73.99461843,member
04944A2A14B85BE4,classic_bike,2022-06-30 14:20:07,2022-06-30 14:32:55,Hamilton Pl & W 138 St,7920.01,St. Nicholas Ave & W 155 St,8085.05,40.821728,-73.952761,40.830663,-73.941323,member
21D81B1B751F175F,classic_bike,2022-12-14 21:45:52,2022-12-14 21:57:50,E 47 St & Park Ave,6584.12,W 47 St & 10 Ave,6824.07,40.75510267,-73.97498696,40.76269882,-73.99301222,member
6A0C9C17B32F3187,classic_bike,2022-08-16 15:11:38,2022-08-16 15:42:13,E 44 St & 2 Ave,6422.09,Suffolk St & Stanton St,5445.02,40.75118387463277,-73.97138714790344,40.72066442,-73.98517977,casual
6B7FB7503802865D,classic_bike,2022-09-20 10:03:51,2022-09-20 10:06:50,W 56 St & 8 Ave,6884.03,8 Ave & W 49 St,6747.07,40.765959181657976,-73.98313522338867,40.76171227910671,-73.98655101656914,member
DC943F3F06C221FD,electric_bike,2022-10-31 08:45:03,2022-10-31 09:08:52,Bleecker St & Crosby St,5679.08,Greenpoint Ave & Manhattan Ave,5785.05,40.72615604980408,-73.99510189890862,40.73026,-73.95394,member
313EC3608F393DFF,classic_bike,2022-10-15 12:32:24,2022-10-15 12:38:05,Macon St & Nostrand Ave,4214.03,Putnam Ave & Throop Ave,4392.04,40.6809833854,-73.9500479759,40.6851532,-73.94111,casual
F196F4B04651931A,classic_bike,2022-01-05 08:53:15,2022-01-05 09:04:43,Plaza St East & Flatbush Ave,4010.01,Ashland Pl & Dekalb Ave,4513.09,40.673134,-73.969106,40.690065,-73.978776,member
A8D32C152E4821BD,classic_bike,2022-12-21 17:36:11,2022-12-21 18:05:14,28 St & 41 Ave,6462.19,Willis Ave & E 137 St,7726.02,40.750495672,-73.937675476,40.808384,-73.923604,member
99332E886CC4E7A3,classic_bike,2022-06-16 17:49:29,2022-06-16 18:04:48,Marcy Ave & Lafayette Ave,4476.03,Bedford Ave & Nassau Ave,5550.05,40.6900815,-73.947915,40.72311651,-73.95212324,casual
EC0F627F18EBCC28,classic_bike,2022-09-23 00:25:22,2022-09-23 00:37:07,E 4 St & 2 Ave,5593.04,8 Ave & W 38 St,6526.05,40.726166606,-73.989820004,40.75461,-73.99177,member
95B4A78EA354192F,classic_bike,2022-11-05 11:58:41,2022-11-05 12:01:17,Leonard St & Church St,5359.11,Lispenard St & Broadway,5391.06,40.717571,-74.005549,40.71939226,-74.00247214,member
AB7EDB20C2C9BDE1,classic_bike,2022-10-03 09:08:08,2022-10-03 09:14:12,E 16 St & 5 Ave,6022.04,Lexington Ave & E 24 St,6089.07,40.73726186,-73.99238967,40.74025878,-73.98409214,member
5447FD8EF049EFE3,electric_bike,2022-01-14 16:49:07,2022-01-14 17:02:43,Cambridge Pl & Gates Ave,4377.04,Bergen St & Smith St,4446.01,40.68488,-73.96304,40.6867443,-73.99063168,member
A4E2D5505FCCAA68,classic_bike,2022-05-04 15:21:01,2022-05-04 15:58:26,Calyer St & Jewel St,5743.02,E 9 St & 5 Ave,5872.1,40.72984,-73.94839,40.73275887045087,-73.99581670761108,member
0047A0D6BE9DA28F,classic_bike,2022-09-21 13:56:09,2022-09-21 14:15:20,36 Ave & 10 St,6737.03,Roebling St & N 4 St,5267.09,40.761512756,-73.941056252,40.71469,-73.95739,member
CB2C435E11C0C6B5,classic_bike,2022-03-23 08:27:32,2022-03-23 09:06:48,Henry St & Middagh St,4861.05,W 30 St & 10 Ave,6459.07,40.7003,-73.991581,40.752694,-74.002353,member
C7F76B83216E3616,classic_bike,2022-10-05 10:04:29,2022-10-05 10:16:53,Broadway & W 138 St,7942.07,St. Nicholas Ave & W 126 St,7756.10,40.82182,-73.95353,40.8114323,-73.9518776,casual
6B0C8221B9406628,classic_bike,2022-09-20 16:34:01,2022-09-20 16:39:27,Kenmare St & Elizabeth St,5453.06,E 2 St & 2 Ave,5593.02,40.72054,-73.9949,40.72502876,-73.99069656,casual
8FD9389691CF93F7,classic_bike,2022-07-29 10:46:27,2022-07-29 10:54:20,Putnam Ave & Nostrand Ave,4327.09,Bergen St & Vanderbilt Ave,4157.10,40.68402,-73.94977,40.6794388,-73.9680438,member
111BA0396EA01417,electric_bike,2022-07-15 14:14:59,2022-07-15 14:18:16,Bedford Ave & S 9 St,5093.01,S 5 Pl & S 5 St,5125.03,40.70853074,-73.96408963,40.710451,-73.960876,member
B00DECCBDE7EE5C3,classic_bike,2022-09-22 18:55:19,2022-09-22 18:57:48,W 24 St & 7 Ave,6257.03,8 Ave & W 27 St,6297.07,40.74487634,-73.99529885,40.747968,-73.996637,member
FEDDD219EE64530A,classic_bike,2022-08-02 20:07:17,2022-08-02 20:09:43,Murray St & Greenwich St,5288.12,Vesey Pl & River Terrace,5297.02,40.71485150526252,-74.01122331619263,40.7153379,-74.01658354,member
C2324FE269EB9B39,electric_bike,2022-05-08 00:42:15,2022-05-08 00:53:52,E 93 St & 2 Ave,7286.02,E 58 St & 1 Ave (NE Corner),6682.03,40.782454175279874,-73.9489196240902,40.75892386377695,-73.96226227283478,member
F7BD8622E709797C,electric_bike,2022-01-05 22:29:11,2022-01-05 22:35:26,W 84 St & Broadway,7409.08,W 95 St & Broadway,7541.01,40.7867947,-73.977112,40.7937704,-73.971888,member
95953CA2E5FFD8F1,classic_bike,2022-09-28 17:53:33,2022-09-28 17:56:37,Dyckman St & 10 Ave,8507.02,10 Ave & W 204 St,8579.09,40.85890447538412,-73.9230939745903,40.862638,-73.92006,member
83F0DC19DBD257AE,classic_bike,2022-06-21 19:09:58,2022-06-21 19:18:41,1 Ave & E 30 St,6079.03,Broadway & W 29 St,6289.06,40.74144387,-73.97536082,40.7462009,-73.98855723,member
3B9AACA88A838B67,classic_bike,2022-06-24 11:23:47,2022-06-24 11:49:32,Front St & Jay St,4895.03,Douglass St & 4 Ave,4175.14,40.702461,-73.986842,40.6792788,-73.98154004,casual
3DCC9A781084C01D,classic_bike,2022-01-13 20:45:33,2022-01-13 20:48:48,Frederick Douglass Blvd & W 139 St,7876.07,Edgecombe Ave & W 145 St,7976.08,40.81900581806558,-73.94476890563965,40.823498,-73.94386,member
582F7270B717534D,electric_bike,2022-12-06 18:33:36,2022-12-06 18:43:56,9 St & 44 Rd,6361.03,31 Ave & Crescent St,6893.10,40.74966,-73.9521,40.7658346,-73.9265474,member
CED4F06F0A33B0F9,classic_bike,2022-11-14 14:00:38,2022-11-14 14:08:43,Skillman Ave & 43 Ave,6300.04,35 St & 30 Ave,6887.03,40.746531248,-73.932288527,40.76547569244953,-73.91811579465866,member
03C31558B2CB0A6B,electric_bike,2022-01-03 02:37:33,2022-01-03 02:41:12,38 Ave & 29 St,6538.11,36 Ave & 31 St,6572.08,40.75473,-73.93367,40.75651272984955,-73.92957486212252,member
C38AC20EA757C276,electric_bike,2022-03-28 16:47:10,2022-03-28 16:50:54,Broadway & W 61 St,7014.12,11 Ave & W 59 St,7059.01,40.77003010255044,-73.9819684624672,40.77149671054441,-73.99046033620834,member
2FF61A2698CF6716,classic_bike,2022-01-04 22:29:53,2022-01-04 22:38:31,2 Ave & E 31 St,6197.02,1 Ave & E 16 St,5779.08,40.74290902,-73.97706058,40.73221853,-73.98165557,member
2519404D96C07C8B,electric_bike,2022-01-02 08:55:51,2022-01-02 09:01:19,Bank St & Hudson St,5922.08,W 20 St & 7 Ave,6182.02,40.73652889,-74.00618026,40.74238787,-73.99726235,member
C148E813DE27DD1E,electric_bike,2022-01-27 23:46:08,2022-01-27 23:55:02,Broadway & W 58 St,6948.10,E 74 St & 1 Ave,6953.08,40.76695317,-73.98169333,40.7689738,-73.95482273,member
F2F606A786E8FFC0,electric_bike,2022-08-13 13:04:57,2022-08-13 13:16:33,Goble Pl & Macombs Rd,8269.01,E 170 St & Clay Ave,8156.01,40.844075,-73.917256,40.837213,-73.908345,member
4664D6B94EB758B5,classic_bike,2022-08-12 14:02:50,2022-08-12 14:36:00,9 Ave & W 18 St,6190.08,W 50 St & 9 Ave,6854.05,40.74317449,-74.00366443,40.76360467795863,-73.98917958140373,casual
584BA9489BEB0A63,classic_bike,2022-05-27 12:33:23,2022-05-27 15:11:13,W 34 St &\tHudson Blvd E,6535.04,South St & Pike St,5159.07,40.75516719072139,-74.00059908628464,40.70991806921533,-73.99161100387573,casual
79A7249507396409,classic_bike,2022-07-02 07:46:37,2022-07-02 07:50:25,E 14 St & 1 Ave,5779.1,E 14 St & Avenue B,5736.09,40.73139303364151,-73.98286700248718,40.72938685,-73.97772429,member
05DAB90336FCE7E4,classic_bike,2022-12-04 14:14:33,2022-12-04 14:19:36,Mercer St & Bleecker St,5679.05,8 Ave & W 16 St,6072.11,40.726988196,-73.99648428,40.740983,-74.001702,member
61436CCA0828F1F6,classic_bike,2022-12-01 08:00:45,2022-12-01 08:00:46,W 90 St & Amsterdam Ave,7432.04,W 90 St & Amsterdam Ave,7432.04,40.790071487,-73.972771287,40.79017948095081,-73.97288918495178,member
2F73C1E43F02C0F6,electric_bike,2022-03-23 12:34:26,2022-03-23 12:38:56,Frederick Douglass Blvd & W 112 St,7631.23,Cathedral Pkwy & Broadway,7680.03,40.801694,-73.957145,40.804213,-73.96699104,casual
B4E86FE52A37A10B,classic_bike,2022-08-10 13:27:43,2022-08-10 13:58:45,W 43 St & 10 Ave,6756.01,Greene St & Prince St,5602.06,40.76009437,-73.99461843,40.72511734422387,-73.99930492043495,member
98D20509218CD850,classic_bike,2022-01-25 10:39:30,2022-01-25 10:43:36,Clark St & Henry St,4789.03,Front St & Washington St,4936.01,40.69760127,-73.99344559,40.70255088,-73.98940236,casual
A9C46BB9A77D77F3,classic_bike,2022-10-23 14:33:23,2022-10-23 14:50:44,Adam Clayton Powell Blvd & W 130 St,7774.02,Bergen Ave & E 152 St,7858.02,40.81246984,-73.946060658,40.817166,-73.914737,member
D9A525FCE079A46B,classic_bike,2022-05-19 10:50:25,2022-05-19 10:52:18,W 26 St & 10 Ave,6382.05,W 30 St & 10 Ave,6459.07,40.749717753,-74.002950346,40.752694,-74.002353,member
D7F1E16463670FC9,classic_bike,2022-07-17 16:21:49,2022-07-17 16:27:39,Prospect Pl & Underhill Ave,4116.08,Bergen St & Flatbush Ave,4281.08,40.6769694,-73.96579,40.680944723477296,-73.97567331790923,member
2669DD32E564C00C,classic_bike,2022-11-22 08:28:11,2022-11-22 08:42:04,E 161 St & River Ave,8041.07,St. Nicholas Ave & W 126 St,7756.1,40.827920675,-73.927196503,40.8114323,-73.9518776,casual
217F57FBC0AAE770,classic_bike,2022-06-02 15:08:25,2022-06-02 15:27:25,W 21 St & 6 Ave,6140.05,Riverside Blvd & W 67 St,7183.03,40.74173969,-73.99415556,40.777507027547976,-73.98888587951659,member
80B89FE52AE0F2C5,classic_bike,2022-07-07 19:56:22,2022-07-07 20:00:37,E 20 St & 2 Ave,5971.08,Broadway & E 14 St,5905.12,40.73587678,-73.98205027,40.73454567,-73.99074142,member
FE7C55E9A81FF7B1,classic_bike,2022-11-15 09:20:11,2022-11-15 09:44:08,E 106 St & 1 Ave,7456.03,33 St & 47 Ave,6185.04,40.789252162,-73.939520359,40.74283,-73.9321,member
B9DCA43C2B2B3D9D,classic_bike,2022-11-29 07:52:21,2022-11-29 08:06:07,E 6 St & Avenue D,5506.14,Bank St & Washington St,5964.01,40.72238028,-73.976765275,40.7361967,-74.00859207,member
68A9FA88352A50FC,classic_bike,2022-03-08 12:31:33,2022-03-08 12:49:50,5 Av & W 139 St,7851.04,5 Av & W 139 St,7851.04,40.815484,-73.935856,40.815484,-73.935856,casual
BE522F014E56F9ED,classic_bike,2022-11-09 15:38:33,2022-11-09 16:03:20,Broadway & W 168 St,8226.06,Columbus Ave & W 72 St,7175.05,40.840663314,-73.939902544,40.7770575,-73.97898475,member
10D0A8936363D407,electric_bike,2022-09-13 18:20:58,2022-09-13 18:37:30,West St & Chambers St,5329.03,W 26 St & 10 Ave,6382.05,40.71754834,-74.01322069,40.749717753,-74.002950346,member
5E8AF4E89EED3A57,classic_bike,2022-03-07 07:33:17,2022-03-07 07:40:33,E 41 St & Madison Ave (SE corner),6432.1,6 Ave & W 34 St,6364.10,40.752049,-73.979635,40.74964,-73.98805,member
403B5C24E8CD46C6,classic_bike,2022-07-30 09:37:19,2022-07-30 09:47:25,Central Park West & W 76 St,7253.04,Broadway & W 58 St,6948.10,40.77896784,-73.97374737,40.76695317,-73.98169333,casual
22F2F6B4017938F7,classic_bike,2022-11-05 07:10:40,2022-11-05 07:23:24,W 67 St & Broadway,7116.04,E 54 St & 1 Ave,6608.09,40.77492513,-73.98266566,40.756265,-73.964179,member
6381295659569F6B,classic_bike,2022-07-21 19:01:33,2022-07-21 19:13:55,E 56 St & 3 Ave,6691.11,E 81 St & York Ave,7084.12,40.75934501,-73.96759673,40.7728384,-73.94989233,member
CBEBC10A70D12698,classic_bike,2022-05-17 17:53:13,2022-05-17 18:08:04,W 31 St & 7 Ave,6331.01,E 45 St & 3 Ave,6464.08,40.749156,-73.9916,40.75255434,-73.97282625,member
B42BC20BEA2319A3,classic_bike,2022-10-06 13:26:24,2022-10-06 13:30:15,2 Ave & E 72 St,6925.09,E 65 St & 2 Ave,6860.12,40.768633723,-73.95848155,40.76471851944339,-73.96222069859505,member
4D17A2E5566DEEF9,classic_bike,2022-03-22 14:27:57,2022-03-22 14:57:26,5 Ave & E 72 St,7100.07,5 Ave & E 103 St,7511.19,40.77282817,-73.96685276,40.7922553,-73.95249933,casual
8E6BB66D8AACB3B2,classic_bike,2022-11-12 12:53:35,2022-11-12 13:14:13,Central Park W & W 97 St,7538.18,Pleasant Ave & E 116 St,7450.05,40.79249519495111,-73.96417066463071,40.7949879,-73.9333349,member
4A7B50DC56B0B80E,classic_bike,2022-07-11 06:44:14,2022-07-11 06:59:11,E 54 St & 1 Ave,6608.09,Broadway & E 21 St,6098.10,40.756265,-73.964179,40.73988840858996,-73.98958593606949,member
EC5AD3115FC35DD6,classic_bike,2022-12-21 09:01:40,2022-12-21 09:34:09,Adam Clayton Powell Blvd & W 132 St,7814.01,Madison Ave & E 82 St,7188.13,40.813539,-73.94521,40.7781314,-73.96069399,casual
BD1F1DE8CE18395C,classic_bike,2022-12-08 07:26:20,2022-12-08 07:29:47,Macon St & Nostrand Ave,4214.03,Putnam Ave & Throop Ave,4392.04,40.681011915,-73.949908733,40.6851532,-73.94111,member
D9B6D15688650AC6,classic_bike,2022-09-07 19:25:51,2022-09-07 19:34:58,Harrison Pl & Porter Ave,5090.06,McKibbin St & Manhattan Ave,4996.08,40.70686,-73.92851,40.70510918,-73.94407279,casual
18CA1AD1708D6B20,classic_bike,2022-03-28 09:01:27,2022-03-28 09:15:31,Riverside Blvd & W 67 St,7183.03,Madison Av & E 51 St,6659.09,40.777507027547976,-73.98888587951659,40.75863,-73.97513,member
1D3DE9E62D38DC53,electric_bike,2022-01-08 13:12:33,2022-01-08 13:20:48,E 56 St & Madison Ave,6732.01,E 72 St & Park Ave,6998.08,40.761573,-73.972628,40.77118287540658,-73.96409422159195,member
28752A0519530646,electric_bike,2022-01-26 21:56:34,2022-01-26 21:57:07,W 42 St & 6 Ave,6517.08,W 42 St & 6 Ave,6517.08,40.75492,-73.98455,40.75492,-73.98455,member
6D5C591F143D3682,electric_bike,2022-01-14 15:31:46,2022-01-14 15:38:03,5 Ave & E 63 St,6904.06,E 76 St & Park Ave,7128.08,40.766368,-73.971518,40.773763,-73.96222088,member
907D18BA808D2260,classic_bike,2022-09-23 13:00:52,2022-09-23 13:04:34,W 50 St & 9 Ave,6854.05,9 Ave & W 45 St,6717.06,40.76360467795863,-73.98917958140373,40.76019252,-73.9912551,member
D6F04907195BC047,classic_bike,2022-05-25 07:43:08,2022-05-25 07:50:51,E 91 St & 2 Ave,7286.01,1 Ave & E 68 St,6822.09,40.78115276427916,-73.94963040947914,40.76500525,-73.95818491,member
